$GPGGA,083704.598,4307.131,N,01221.357,E,1,12,1.0,0.0,M,0.0,M,,*60
$GPGSA,A,3,01,02,03,04,05,06,07,08,09,10,11,12,1.0,1.0,1.0*30
$GPRMC,083704.598,A,4307.131,N,01221.357,E,001.0,331.7,231021,000.0,W*70
$GPGGA,083705.598,4307.131,N,01221.357,E,1,12,1.0,0.0,M,0.0,M,,*61
$GPGSA,A,3,01,02,03,04,05,06,07,08,09,10,11,12,1.0,1.0,1.0*30
$GPRMC,083705.598,A,4307.131,N,01221.357,E,001.0,331.7,231021,000.0,W*71
$GPGGA,083706.598,4307.131,N,01221.357,E,1,12,1.0,0.0,M,0.0,M,,*62
$GPGSA,A,3,01,02,03,04,05,06,07,08,09,10,11,12,1.0,1.0,1.0*30
$GPRMC,083706.598,A,4307.131,N,01221.357,E,001.0,331.7,231021,000.0,W*72
$GPGGA,083707.598,4307.132,N,01221.357,E,1,12,1.0,0.0,M,0.0,M,,*60
$GPGSA,A,3,01,02,03,04,05,06,07,08,09,10,11,12,1.0,1.0,1.0*30
$GPRMC,083707.598,A,4307.132,N,01221.357,E,001.0,331.7,231021,000.0,W*70
$GPGGA,083708.598,4307.132,N,01221.356,E,1,12,1.0,0.0,M,0.0,M,,*6E
$GPGSA,A,3,01,02,03,04,05,06,07,08,09,10,11,12,1.0,1.0,1.0*30
$GPRMC,083708.598,A,4307.132,N,01221.356,E,001.0,331.7,231021,000.0,W*7E
$GPGGA,083709.598,4307.132,N,01221.356,E,1,12,1.0,0.0,M,0.0,M,,*6F
$GPGSA,A,3,01,02,03,04,05,06,07,08,09,10,11,12,1.0,1.0,1.0*30
$GPRMC,083709.598,A,4307.132,N,01221.356,E,001.0,331.7,231021,000.0,W*7F
$GPGGA,083710.598,4307.132,N,01221.356,E,1,12,1.0,0.0,M,0.0,M,,*67
$GPGSA,A,3,01,02,03,04,05,06,07,08,09,10,11,12,1.0,1.0,1.0*30
$GPRMC,083710.598,A,4307.132,N,01221.356,E,001.0,331.7,231021,000.0,W*77
$GPGGA,083711.598,4307.133,N,01221.356,E,1,12,1.0,0.0,M,0.0,M,,*67
$GPGSA,A,3,01,02,03,04,05,06,07,08,09,10,11,12,1.0,1.0,1.0*30
$GPRMC,083711.598,A,4307.133,N,01221.356,E,001.0,331.7,231021,000.0,W*77
$GPGGA,083712.598,4307.133,N,01221.356,E,1,12,1.0,0.0,M,0.0,M,,*64
$GPGSA,A,3,01,02,03,04,05,06,07,08,09,10,11,12,1.0,1.0,1.0*30
$GPRMC,083712.598,A,4307.133,N,01221.356,E,001.0,331.7,231021,000.0,W*74
$GPGGA,083713.598,4307.133,N,01221.356,E,1,12,1.0,0.0,M,0.0,M,,*65
$GPGSA,A,3,01,02,03,04,05,06,07,08,09,10,11,12,1.0,1.0,1.0*30
$GPRMC,083713.598,A,4307.133,N,01221.356,E,001.0,331.7,231021,000.0,W*75
$GPGGA,083714.598,4307.133,N,01221.356,E,1,12,1.0,0.0,M,0.0,M,,*62
$GPGSA,A,3,01,02,03,04,05,06,07,08,09,10,11,12,1.0,1.0,1.0*30
$GPRMC,083714.598,A,4307.133,N,01221.356,E,001.0,331.7,231021,000.0,W*72
$GPGGA,083715.598,4307.134,N,01221.355,E,1,12,1.0,0.0,M,0.0,M,,*67
$GPGSA,A,3,01,02,03,04,05,06,07,08,09,10,11,12,1.0,1.0,1.0*30
$GPRMC,083715.598,A,4307.134,N,01221.355,E,001.0,331.7,231021,000.0,W*77
$GPGGA,083716.598,4307.134,N,01221.355,E,1,12,1.0,0.0,M,0.0,M,,*64
$GPGSA,A,3,01,02,03,04,05,06,07,08,09,10,11,12,1.0,1.0,1.0*30
$GPRMC,083716.598,A,4307.134,N,01221.355,E,001.0,331.7,231021,000.0,W*74
$GPGGA,083717.598,4307.134,N,01221.355,E,1,12,1.0,0.0,M,0.0,M,,*65
$GPGSA,A,3,01,02,03,04,05,06,07,08,09,10,11,12,1.0,1.0,1.0*30
$GPRMC,083717.598,A,4307.134,N,01221.355,E,001.0,331.7,231021,000.0,W*75
$GPGGA,083718.598,4307.134,N,01221.355,E,1,12,1.0,0.0,M,0.0,M,,*6A
$GPGSA,A,3,01,02,03,04,05,06,07,08,09,10,11,12,1.0,1.0,1.0*30
$GPRMC,083718.598,A,4307.134,N,01221.355,E,001.0,331.7,231021,000.0,W*7A
$GPGGA,083719.598,4307.135,N,01221.355,E,1,12,1.0,0.0,M,0.0,M,,*6A
$GPGSA,A,3,01,02,03,04,05,06,07,08,09,10,11,12,1.0,1.0,1.0*30
$GPRMC,083719.598,A,4307.135,N,01221.355,E,001.0,331.7,231021,000.0,W*7A
$GPGGA,083720.598,4307.135,N,01221.355,E,1,12,1.0,0.0,M,0.0,M,,*60
$GPGSA,A,3,01,02,03,04,05,06,07,08,09,10,11,12,1.0,1.0,1.0*30
$GPRMC,083720.598,A,4307.135,N,01221.355,E,001.0,331.7,231021,000.0,W*70
$GPGGA,083721.598,4307.135,N,01221.355,E,1,12,1.0,0.0,M,0.0,M,,*61
$GPGSA,A,3,01,02,03,04,05,06,07,08,09,10,11,12,1.0,1.0,1.0*30
$GPRMC,083721.598,A,4307.135,N,01221.355,E,001.0,331.7,231021,000.0,W*71
$GPGGA,083722.598,4307.135,N,01221.354,E,1,12,1.0,0.0,M,0.0,M,,*63
$GPGSA,A,3,01,02,03,04,05,06,07,08,09,10,11,12,1.0,1.0,1.0*30
$GPRMC,083722.598,A,4307.135,N,01221.354,E,001.0,331.7,231021,000.0,W*73
$GPGGA,083723.598,4307.136,N,01221.354,E,1,12,1.0,0.0,M,0.0,M,,*61
$GPGSA,A,3,01,02,03,04,05,06,07,08,09,10,11,12,1.0,1.0,1.0*30
$GPRMC,083723.598,A,4307.136,N,01221.354,E,001.0,331.7,231021,000.0,W*71
$GPGGA,083724.598,4307.136,N,01221.354,E,1,12,1.0,0.0,M,0.0,M,,*66
$GPGSA,A,3,01,02,03,04,05,06,07,08,09,10,11,12,1.0,1.0,1.0*30
$GPRMC,083724.598,A,4307.136,N,01221.354,E,001.0,331.7,231021,000.0,W*76
$GPGGA,083725.598,4307.136,N,01221.354,E,1,12,1.0,0.0,M,0.0,M,,*67
$GPGSA,A,3,01,02,03,04,05,06,07,08,09,10,11,12,1.0,1.0,1.0*30
$GPRMC,083725.598,A,4307.136,N,01221.354,E,001.0,331.7,231021,000.0,W*77
$GPGGA,083726.598,4307.136,N,01221.354,E,1,12,1.0,0.0,M,0.0,M,,*64
$GPGSA,A,3,01,02,03,04,05,06,07,08,09,10,11,12,1.0,1.0,1.0*30
$GPRMC,083726.598,A,4307.136,N,01221.354,E,001.0,331.7,231021,000.0,W*74
$GPGGA,083727.598,4307.137,N,01221.354,E,1,12,1.0,0.0,M,0.0,M,,*64
$GPGSA,A,3,01,02,03,04,05,06,07,08,09,10,11,12,1.0,1.0,1.0*30
$GPRMC,083727.598,A,4307.137,N,01221.354,E,001.0,331.7,231021,000.0,W*74
$GPGGA,083728.598,4307.137,N,01221.354,E,1,12,1.0,0.0,M,0.0,M,,*6B
$GPGSA,A,3,01,02,03,04,05,06,07,08,09,10,11,12,1.0,1.0,1.0*30
$GPRMC,083728.598,A,4307.137,N,01221.354,E,001.0,331.7,231021,000.0,W*7B
$GPGGA,083729.598,4307.137,N,01221.354,E,1,12,1.0,0.0,M,0.0,M,,*6A
$GPGSA,A,3,01,02,03,04,05,06,07,08,09,10,11,12,1.0,1.0,1.0*30
$GPRMC,083729.598,A,4307.137,N,01221.354,E,001.0,322.3,231021,000.0,W*7C
$GPGGA,083730.598,4307.137,N,01221.353,E,1,12,1.0,0.0,M,0.0,M,,*65
$GPGSA,A,3,01,02,03,04,05,06,07,08,09,10,11,12,1.0,1.0,1.0*30
$GPRMC,083730.598,A,4307.137,N,01221.353,E,001.0,322.3,231021,000.0,W*73
$GPGGA,083731.598,4307.138,N,01221.353,E,1,12,1.0,0.0,M,0.0,M,,*6B
$GPGSA,A,3,01,02,03,04,05,06,07,08,09,10,11,12,1.0,1.0,1.0*30
$GPRMC,083731.598,A,4307.138,N,01221.353,E,001.0,322.3,231021,000.0,W*7D
$GPGGA,083732.598,4307.138,N,01221.353,E,1,12,1.0,0.0,M,0.0,M,,*68
$GPGSA,A,3,01,02,03,04,05,06,07,08,09,10,11,12,1.0,1.0,1.0*30
$GPRMC,083732.598,A,4307.138,N,01221.353,E,001.0,322.3,231021,000.0,W*7E
$GPGGA,083733.598,4307.138,N,01221.353,E,1,12,1.0,0.0,M,0.0,M,,*69
$GPGSA,A,3,01,02,03,04,05,06,07,08,09,10,11,12,1.0,1.0,1.0*30
$GPRMC,083733.598,A,4307.138,N,01221.353,E,001.0,322.3,231021,000.0,W*7F
$GPGGA,083734.598,4307.138,N,01221.353,E,1,12,1.0,0.0,M,0.0,M,,*6E
$GPGSA,A,3,01,02,03,04,05,06,07,08,09,10,11,12,1.0,1.0,1.0*30
$GPRMC,083734.598,A,4307.138,N,01221.353,E,001.0,322.3,231021,000.0,W*78
$GPGGA,083735.598,4307.139,N,01221.352,E,1,12,1.0,0.0,M,0.0,M,,*6F
$GPGSA,A,3,01,02,03,04,05,06,07,08,09,10,11,12,1.0,1.0,1.0*30
$GPRMC,083735.598,A,4307.139,N,01221.352,E,001.0,322.3,231021,000.0,W*79
$GPGGA,083736.598,4307.139,N,01221.352,E,1,12,1.0,0.0,M,0.0,M,,*6C
$GPGSA,A,3,01,02,03,04,05,06,07,08,09,10,11,12,1.0,1.0,1.0*30
$GPRMC,083736.598,A,4307.139,N,01221.352,E,001.0,322.3,231021,000.0,W*7A
$GPGGA,083737.598,4307.139,N,01221.352,E,1,12,1.0,0.0,M,0.0,M,,*6D
$GPGSA,A,3,01,02,03,04,05,06,07,08,09,10,11,12,1.0,1.0,1.0*30
$GPRMC,083737.598,A,4307.139,N,01221.352,E,001.0,322.3,231021,000.0,W*7B
$GPGGA,083738.598,4307.139,N,01221.352,E,1,12,1.0,0.0,M,0.0,M,,*62
$GPGSA,A,3,01,02,03,04,05,06,07,08,09,10,11,12,1.0,1.0,1.0*30
$GPRMC,083738.598,A,4307.139,N,01221.352,E,001.0,322.3,231021,000.0,W*74
$GPGGA,083739.598,4307.139,N,01221.352,E,1,12,1.0,0.0,M,0.0,M,,*63
$GPGSA,A,3,01,02,03,04,05,06,07,08,09,10,11,12,1.0,1.0,1.0*30
$GPRMC,083739.598,A,4307.139,N,01221.352,E,001.0,328.7,231021,000.0,W*7B
$GPGGA,083740.598,4307.140,N,01221.352,E,1,12,1.0,0.0,M,0.0,M,,*63
$GPGSA,A,3,01,02,03,04,05,06,07,08,09,10,11,12,1.0,1.0,1.0*30
$GPRMC,083740.598,A,4307.140,N,01221.352,E,001.0,328.7,231021,000.0,W*7B
$GPGGA,083741.598,4307.140,N,01221.351,E,1,12,1.0,0.0,M,0.0,M,,*61
$GPGSA,A,3,01,02,03,04,05,06,07,08,09,10,11,12,1.0,1.0,1.0*30
$GPRMC,083741.598,A,4307.140,N,01221.351,E,001.0,328.7,231021,000.0,W*79
$GPGGA,083742.598,4307.140,N,01221.351,E,1,12,1.0,0.0,M,0.0,M,,*62
$GPGSA,A,3,01,02,03,04,05,06,07,08,09,10,11,12,1.0,1.0,1.0*30
$GPRMC,083742.598,A,4307.140,N,01221.351,E,001.0,328.7,231021,000.0,W*7A
$GPGGA,083743.598,4307.140,N,01221.351,E,1,12,1.0,0.0,M,0.0,M,,*63
$GPGSA,A,3,01,02,03,04,05,06,07,08,09,10,11,12,1.0,1.0,1.0*30
$GPRMC,083743.598,A,4307.140,N,01221.351,E,001.0,328.7,231021,000.0,W*7B
$GPGGA,083744.598,4307.141,N,01221.351,E,1,12,1.0,0.0,M,0.0,M,,*65
$GPGSA,A,3,01,02,03,04,05,06,07,08,09,10,11,12,1.0,1.0,1.0*30
$GPRMC,083744.598,A,4307.141,N,01221.351,E,001.0,328.7,231021,000.0,W*7D
$GPGGA,083745.598,4307.141,N,01221.351,E,1,12,1.0,0.0,M,0.0,M,,*64
$GPGSA,A,3,01,02,03,04,05,06,07,08,09,10,11,12,1.0,1.0,1.0*30
$GPRMC,083745.598,A,4307.141,N,01221.351,E,001.0,328.7,231021,000.0,W*7C
$GPGGA,083746.598,4307.141,N,01221.351,E,1,12,1.0,0.0,M,0.0,M,,*67
$GPGSA,A,3,01,02,03,04,05,06,07,08,09,10,11,12,1.0,1.0,1.0*30
$GPRMC,083746.598,A,4307.141,N,01221.351,E,001.0,328.7,231021,000.0,W*7F
$GPGGA,083747.598,4307.141,N,01221.350,E,1,12,1.0,0.0,M,0.0,M,,*67
$GPGSA,A,3,01,02,03,04,05,06,07,08,09,10,11,12,1.0,1.0,1.0*30
$GPRMC,083747.598,A,4307.141,N,01221.350,E,001.0,328.7,231021,000.0,W*7F
$GPGGA,083748.598,4307.142,N,01221.350,E,1,12,1.0,0.0,M,0.0,M,,*6B
$GPGSA,A,3,01,02,03,04,05,06,07,08,09,10,11,12,1.0,1.0,1.0*30
$GPRMC,083748.598,A,4307.142,N,01221.350,E,001.0,328.7,231021,000.0,W*73
$GPGGA,083749.598,4307.142,N,01221.350,E,1,12,1.0,0.0,M,0.0,M,,*6A
$GPGSA,A,3,01,02,03,04,05,06,07,08,09,10,11,12,1.0,1.0,1.0*30
$GPRMC,083749.598,A,4307.142,N,01221.350,E,001.0,328.7,231021,000.0,W*72
$GPGGA,083750.598,4307.142,N,01221.350,E,1,12,1.0,0.0,M,0.0,M,,*62
$GPGSA,A,3,01,02,03,04,05,06,07,08,09,10,11,12,1.0,1.0,1.0*30
$GPRMC,083750.598,A,4307.142,N,01221.350,E,001.0,328.7,231021,000.0,W*7A
$GPGGA,083751.598,4307.142,N,01221.350,E,1,12,1.0,0.0,M,0.0,M,,*63
$GPGSA,A,3,01,02,03,04,05,06,07,08,09,10,11,12,1.0,1.0,1.0*30
$GPRMC,083751.598,A,4307.142,N,01221.350,E,001.0,328.7,231021,000.0,W*7B
$GPGGA,083752.598,4307.143,N,01221.350,E,1,12,1.0,0.0,M,0.0,M,,*61
$GPGSA,A,3,01,02,03,04,05,06,07,08,09,10,11,12,1.0,1.0,1.0*30
$GPRMC,083752.598,A,4307.143,N,01221.350,E,001.0,328.7,231021,000.0,W*79
$GPGGA,083753.598,4307.143,N,01221.350,E,1,12,1.0,0.0,M,0.0,M,,*60
$GPGSA,A,3,01,02,03,04,05,06,07,08,09,10,11,12,1.0,1.0,1.0*30
$GPRMC,083753.598,A,4307.143,N,01221.350,E,001.0,328.7,231021,000.0,W*78
$GPGGA,083754.598,4307.143,N,01221.349,E,1,12,1.0,0.0,M,0.0,M,,*6F
$GPGSA,A,3,01,02,03,04,05,06,07,08,09,10,11,12,1.0,1.0,1.0*30
$GPRMC,083754.598,A,4307.143,N,01221.349,E,001.0,328.7,231021,000.0,W*77
$GPGGA,083755.598,4307.143,N,01221.349,E,1,12,1.0,0.0,M,0.0,M,,*6E
$GPGSA,A,3,01,02,03,04,05,06,07,08,09,10,11,12,1.0,1.0,1.0*30
$GPRMC,083755.598,A,4307.143,N,01221.349,E,001.0,328.7,231021,000.0,W*76
$GPGGA,083756.598,4307.144,N,01221.349,E,1,12,1.0,0.0,M,0.0,M,,*6A
$GPGSA,A,3,01,02,03,04,05,06,07,08,09,10,11,12,1.0,1.0,1.0*30
$GPRMC,083756.598,A,4307.144,N,01221.349,E,001.0,328.7,231021,000.0,W*72
$GPGGA,083757.598,4307.144,N,01221.349,E,1,12,1.0,0.0,M,0.0,M,,*6B
$GPGSA,A,3,01,02,03,04,05,06,07,08,09,10,11,12,1.0,1.0,1.0*30
$GPRMC,083757.598,A,4307.144,N,01221.349,E,001.0,328.7,231021,000.0,W*73
$GPGGA,083758.598,4307.144,N,01221.349,E,1,12,1.0,0.0,M,0.0,M,,*64
$GPGSA,A,3,01,02,03,04,05,06,07,08,09,10,11,12,1.0,1.0,1.0*30
$GPRMC,083758.598,A,4307.144,N,01221.349,E,001.0,328.7,231021,000.0,W*7C
$GPGGA,083759.598,4307.144,N,01221.349,E,1,12,1.0,0.0,M,0.0,M,,*65
$GPGSA,A,3,01,02,03,04,05,06,07,08,09,10,11,12,1.0,1.0,1.0*30
$GPRMC,083759.598,A,4307.144,N,01221.349,E,001.0,328.7,231021,000.0,W*7D
$GPGGA,083800.598,4307.145,N,01221.349,E,1,12,1.0,0.0,M,0.0,M,,*67
$GPGSA,A,3,01,02,03,04,05,06,07,08,09,10,11,12,1.0,1.0,1.0*30
$GPRMC,083800.598,A,4307.145,N,01221.349,E,001.0,328.7,231021,000.0,W*7F
$GPGGA,083801.598,4307.145,N,01221.348,E,1,12,1.0,0.0,M,0.0,M,,*67
$GPGSA,A,3,01,02,03,04,05,06,07,08,09,10,11,12,1.0,1.0,1.0*30
$GPRMC,083801.598,A,4307.145,N,01221.348,E,001.0,328.7,231021,000.0,W*7F
$GPGGA,083802.598,4307.145,N,01221.348,E,1,12,1.0,0.0,M,0.0,M,,*64
$GPGSA,A,3,01,02,03,04,05,06,07,08,09,10,11,12,1.0,1.0,1.0*30
$GPRMC,083802.598,A,4307.145,N,01221.348,E,001.0,329.5,231021,000.0,W*7F
$GPGGA,083803.598,4307.145,N,01221.348,E,1,12,1.0,0.0,M,0.0,M,,*65
$GPGSA,A,3,01,02,03,04,05,06,07,08,09,10,11,12,1.0,1.0,1.0*30
$GPRMC,083803.598,A,4307.145,N,01221.348,E,001.0,329.5,231021,000.0,W*7E
$GPGGA,083804.598,4307.146,N,01221.348,E,1,12,1.0,0.0,M,0.0,M,,*61
$GPGSA,A,3,01,02,03,04,05,06,07,08,09,10,11,12,1.0,1.0,1.0*30
$GPRMC,083804.598,A,4307.146,N,01221.348,E,001.0,329.5,231021,000.0,W*7A
$GPGGA,083805.598,4307.146,N,01221.348,E,1,12,1.0,0.0,M,0.0,M,,*60
$GPGSA,A,3,01,02,03,04,05,06,07,08,09,10,11,12,1.0,1.0,1.0*30
$GPRMC,083805.598,A,4307.146,N,01221.348,E,001.0,329.5,231021,000.0,W*7B
$GPGGA,083806.598,4307.146,N,01221.348,E,1,12,1.0,0.0,M,0.0,M,,*63
$GPGSA,A,3,01,02,03,04,05,06,07,08,09,10,11,12,1.0,1.0,1.0*30
$GPRMC,083806.598,A,4307.146,N,01221.348,E,001.0,329.5,231021,000.0,W*78
$GPGGA,083807.598,4307.146,N,01221.348,E,1,12,1.0,0.0,M,0.0,M,,*62
$GPGSA,A,3,01,02,03,04,05,06,07,08,09,10,11,12,1.0,1.0,1.0*30
$GPRMC,083807.598,A,4307.146,N,01221.348,E,001.0,329.5,231021,000.0,W*79
$GPGGA,083808.598,4307.147,N,01221.347,E,1,12,1.0,0.0,M,0.0,M,,*63
$GPGSA,A,3,01,02,03,04,05,06,07,08,09,10,11,12,1.0,1.0,1.0*30
$GPRMC,083808.598,A,4307.147,N,01221.347,E,001.0,329.5,231021,000.0,W*78
$GPGGA,083809.598,4307.147,N,01221.347,E,1,12,1.0,0.0,M,0.0,M,,*62
$GPGSA,A,3,01,02,03,04,05,06,07,08,09,10,11,12,1.0,1.0,1.0*30
$GPRMC,083809.598,A,4307.147,N,01221.347,E,001.0,329.5,231021,000.0,W*79
$GPGGA,083810.598,4307.147,N,01221.347,E,1,12,1.0,0.0,M,0.0,M,,*6A
$GPGSA,A,3,01,02,03,04,05,06,07,08,09,10,11,12,1.0,1.0,1.0*30
$GPRMC,083810.598,A,4307.147,N,01221.347,E,001.0,329.5,231021,000.0,W*71
$GPGGA,083811.598,4307.147,N,01221.347,E,1,12,1.0,0.0,M,0.0,M,,*6B
$GPGSA,A,3,01,02,03,04,05,06,07,08,09,10,11,12,1.0,1.0,1.0*30
$GPRMC,083811.598,A,4307.147,N,01221.347,E,001.0,329.5,231021,000.0,W*70
$GPGGA,083812.598,4307.148,N,01221.347,E,1,12,1.0,0.0,M,0.0,M,,*67
$GPGSA,A,3,01,02,03,04,05,06,07,08,09,10,11,12,1.0,1.0,1.0*30
$GPRMC,083812.598,A,4307.148,N,01221.347,E,001.0,329.5,231021,000.0,W*7C
$GPGGA,083813.598,4307.148,N,01221.347,E,1,12,1.0,0.0,M,0.0,M,,*66
$GPGSA,A,3,01,02,03,04,05,06,07,08,09,10,11,12,1.0,1.0,1.0*30
$GPRMC,083813.598,A,4307.148,N,01221.347,E,001.0,329.5,231021,000.0,W*7D
$GPGGA,083814.598,4307.148,N,01221.346,E,1,12,1.0,0.0,M,0.0,M,,*60
$GPGSA,A,3,01,02,03,04,05,06,07,08,09,10,11,12,1.0,1.0,1.0*30
$GPRMC,083814.598,A,4307.148,N,01221.346,E,001.0,329.5,231021,000.0,W*7B
$GPGGA,083815.598,4307.148,N,01221.346,E,1,12,1.0,0.0,M,0.0,M,,*61
$GPGSA,A,3,01,02,03,04,05,06,07,08,09,10,11,12,1.0,1.0,1.0*30
$GPRMC,083815.598,A,4307.148,N,01221.346,E,001.0,329.5,231021,000.0,W*7A
$GPGGA,083816.598,4307.149,N,01221.346,E,1,12,1.0,0.0,M,0.0,M,,*63
$GPGSA,A,3,01,02,03,04,05,06,07,08,09,10,11,12,1.0,1.0,1.0*30
$GPRMC,083816.598,A,4307.149,N,01221.346,E,001.0,329.5,231021,000.0,W*78
$GPGGA,083817.598,4307.149,N,01221.346,E,1,12,1.0,0.0,M,0.0,M,,*62
$GPGSA,A,3,01,02,03,04,05,06,07,08,09,10,11,12,1.0,1.0,1.0*30
$GPRMC,083817.598,A,4307.149,N,01221.346,E,001.0,329.5,231021,000.0,W*79
$GPGGA,083818.598,4307.149,N,01221.346,E,1,12,1.0,0.0,M,0.0,M,,*6D
$GPGSA,A,3,01,02,03,04,05,06,07,08,09,10,11,12,1.0,1.0,1.0*30
$GPRMC,083818.598,A,4307.149,N,01221.346,E,001.0,329.5,231021,000.0,W*76
$GPGGA,083819.598,4307.149,N,01221.346,E,1,12,1.0,0.0,M,0.0,M,,*6C
$GPGSA,A,3,01,02,03,04,05,06,07,08,09,10,11,12,1.0,1.0,1.0*30
$GPRMC,083819.598,A,4307.149,N,01221.346,E,001.0,329.5,231021,000.0,W*77
$GPGGA,083820.598,4307.150,N,01221.346,E,1,12,1.0,0.0,M,0.0,M,,*6E
$GPGSA,A,3,01,02,03,04,05,06,07,08,09,10,11,12,1.0,1.0,1.0*30
$GPRMC,083820.598,A,4307.150,N,01221.346,E,001.0,336.2,231021,000.0,W*7C
$GPGGA,083821.598,4307.150,N,01221.346,E,1,12,1.0,0.0,M,0.0,M,,*6F
$GPGSA,A,3,01,02,03,04,05,06,07,08,09,10,11,12,1.0,1.0,1.0*30
$GPRMC,083821.598,A,4307.150,N,01221.346,E,001.0,336.2,231021,000.0,W*7D
$GPGGA,083822.598,4307.150,N,01221.345,E,1,12,1.0,0.0,M,0.0,M,,*6F
$GPGSA,A,3,01,02,03,04,05,06,07,08,09,10,11,12,1.0,1.0,1.0*30
$GPRMC,083822.598,A,4307.150,N,01221.345,E,001.0,336.2,231021,000.0,W*7D
$GPGGA,083823.598,4307.150,N,01221.345,E,1,12,1.0,0.0,M,0.0,M,,*6E
$GPGSA,A,3,01,02,03,04,05,06,07,08,09,10,11,12,1.0,1.0,1.0*30
$GPRMC,083823.598,A,4307.150,N,01221.345,E,001.0,336.2,231021,000.0,W*7C
$GPGGA,083824.598,4307.151,N,01221.345,E,1,12,1.0,0.0,M,0.0,M,,*68
$GPGSA,A,3,01,02,03,04,05,06,07,08,09,10,11,12,1.0,1.0,1.0*30
$GPRMC,083824.598,A,4307.151,N,01221.345,E,001.0,336.2,231021,000.0,W*7A
$GPGGA,083825.598,4307.151,N,01221.345,E,1,12,1.0,0.0,M,0.0,M,,*69
$GPGSA,A,3,01,02,03,04,05,06,07,08,09,10,11,12,1.0,1.0,1.0*30
$GPRMC,083825.598,A,4307.151,N,01221.345,E,001.0,336.2,231021,000.0,W*7B
$GPGGA,083826.598,4307.151,N,01221.345,E,1,12,1.0,0.0,M,0.0,M,,*6A
$GPGSA,A,3,01,02,03,04,05,06,07,08,09,10,11,12,1.0,1.0,1.0*30
$GPRMC,083826.598,A,4307.151,N,01221.345,E,001.0,336.2,231021,000.0,W*78
$GPGGA,083827.598,4307.151,N,01221.345,E,1,12,1.0,0.0,M,0.0,M,,*6B
$GPGSA,A,3,01,02,03,04,05,06,07,08,09,10,11,12,1.0,1.0,1.0*30
$GPRMC,083827.598,A,4307.151,N,01221.345,E,001.0,336.2,231021,000.0,W*79
$GPGGA,083828.598,4307.152,N,01221.345,E,1,12,1.0,0.0,M,0.0,M,,*67
$GPGSA,A,3,01,02,03,04,05,06,07,08,09,10,11,12,1.0,1.0,1.0*30
$GPRMC,083828.598,A,4307.152,N,01221.345,E,001.0,336.2,231021,000.0,W*75
$GPGGA,083829.598,4307.152,N,01221.345,E,1,12,1.0,0.0,M,0.0,M,,*66
$GPGSA,A,3,01,02,03,04,05,06,07,08,09,10,11,12,1.0,1.0,1.0*30
$GPRMC,083829.598,A,4307.152,N,01221.345,E,001.0,336.2,231021,000.0,W*74
$GPGGA,083830.598,4307.152,N,01221.344,E,1,12,1.0,0.0,M,0.0,M,,*6F
$GPGSA,A,3,01,02,03,04,05,06,07,08,09,10,11,12,1.0,1.0,1.0*30
$GPRMC,083830.598,A,4307.152,N,01221.344,E,001.0,336.2,231021,000.0,W*7D
$GPGGA,083831.598,4307.152,N,01221.344,E,1,12,1.0,0.0,M,0.0,M,,*6E
$GPGSA,A,3,01,02,03,04,05,06,07,08,09,10,11,12,1.0,1.0,1.0*30
$GPRMC,083831.598,A,4307.152,N,01221.344,E,001.0,336.2,231021,000.0,W*7C
$GPGGA,083832.598,4307.153,N,01221.344,E,1,12,1.0,0.0,M,0.0,M,,*6C
$GPGSA,A,3,01,02,03,04,05,06,07,08,09,10,11,12,1.0,1.0,1.0*30
$GPRMC,083832.598,A,4307.153,N,01221.344,E,001.0,336.2,231021,000.0,W*7E
$GPGGA,083833.598,4307.153,N,01221.344,E,1,12,1.0,0.0,M,0.0,M,,*6D
$GPGSA,A,3,01,02,03,04,05,06,07,08,09,10,11,12,1.0,1.0,1.0*30
$GPRMC,083833.598,A,4307.153,N,01221.344,E,001.0,336.2,231021,000.0,W*7F
$GPGGA,083834.598,4307.153,N,01221.344,E,1,12,1.0,0.0,M,0.0,M,,*6A
$GPGSA,A,3,01,02,03,04,05,06,07,08,09,10,11,12,1.0,1.0,1.0*30
$GPRMC,083834.598,A,4307.153,N,01221.344,E,001.0,336.2,231021,000.0,W*78
$GPGGA,083835.598,4307.153,N,01221.344,E,1,12,1.0,0.0,M,0.0,M,,*6B
$GPGSA,A,3,01,02,03,04,05,06,07,08,09,10,11,12,1.0,1.0,1.0*30
$GPRMC,083835.598,A,4307.153,N,01221.344,E,001.0,336.2,231021,000.0,W*79
$GPGGA,083836.598,4307.154,N,01221.344,E,1,12,1.0,0.0,M,0.0,M,,*6F
$GPGSA,A,3,01,02,03,04,05,06,07,08,09,10,11,12,1.0,1.0,1.0*30
$GPRMC,083836.598,A,4307.154,N,01221.344,E,001.0,336.2,231021,000.0,W*7D
$GPGGA,083837.598,4307.154,N,01221.344,E,1,12,1.0,0.0,M,0.0,M,,*6E
$GPGSA,A,3,01,02,03,04,05,06,07,08,09,10,11,12,1.0,1.0,1.0*30
$GPRMC,083837.598,A,4307.154,N,01221.344,E,001.0,336.2,231021,000.0,W*7C
$GPGGA,083838.598,4307.154,N,01221.344,E,1,12,1.0,0.0,M,0.0,M,,*61
$GPGSA,A,3,01,02,03,04,05,06,07,08,09,10,11,12,1.0,1.0,1.0*30
$GPRMC,083838.598,A,4307.154,N,01221.344,E,001.0,336.2,231021,000.0,W*73
$GPGGA,083839.598,4307.155,N,01221.343,E,1,12,1.0,0.0,M,0.0,M,,*66
$GPGSA,A,3,01,02,03,04,05,06,07,08,09,10,11,12,1.0,1.0,1.0*30
$GPRMC,083839.598,A,4307.155,N,01221.343,E,001.0,336.2,231021,000.0,W*74
$GPGGA,083840.598,4307.155,N,01221.343,E,1,12,1.0,0.0,M,0.0,M,,*68
$GPGSA,A,3,01,02,03,04,05,06,07,08,09,10,11,12,1.0,1.0,1.0*30
$GPRMC,083840.598,A,4307.155,N,01221.343,E,001.0,336.2,231021,000.0,W*7A
$GPGGA,083841.598,4307.155,N,01221.343,E,1,12,1.0,0.0,M,0.0,M,,*69
$GPGSA,A,3,01,02,03,04,05,06,07,08,09,10,11,12,1.0,1.0,1.0*30
$GPRMC,083841.598,A,4307.155,N,01221.343,E,001.0,321.2,231021,000.0,W*7D
$GPGGA,083842.598,4307.155,N,01221.343,E,1,12,1.0,0.0,M,0.0,M,,*6A
$GPGSA,A,3,01,02,03,04,05,06,07,08,09,10,11,12,1.0,1.0,1.0*30
$GPRMC,083842.598,A,4307.155,N,01221.343,E,001.0,321.2,231021,000.0,W*7E
$GPGGA,083843.598,4307.155,N,01221.343,E,1,12,1.0,0.0,M,0.0,M,,*6B
$GPGSA,A,3,01,02,03,04,05,06,07,08,09,10,11,12,1.0,1.0,1.0*30
$GPRMC,083843.598,A,4307.155,N,01221.343,E,001.0,321.2,231021,000.0,W*7F
$GPGGA,083844.598,4307.156,N,01221.343,E,1,12,1.0,0.0,M,0.0,M,,*6F
$GPGSA,A,3,01,02,03,04,05,06,07,08,09,10,11,12,1.0,1.0,1.0*30
$GPRMC,083844.598,A,4307.156,N,01221.343,E,001.0,321.2,231021,000.0,W*7B
$GPGGA,083845.598,4307.156,N,01221.342,E,1,12,1.0,0.0,M,0.0,M,,*6F
$GPGSA,A,3,01,02,03,04,05,06,07,08,09,10,11,12,1.0,1.0,1.0*30
$GPRMC,083845.598,A,4307.156,N,01221.342,E,001.0,321.2,231021,000.0,W*7B
$GPGGA,083846.598,4307.156,N,01221.342,E,1,12,1.0,0.0,M,0.0,M,,*6C
$GPGSA,A,3,01,02,03,04,05,06,07,08,09,10,11,12,1.0,1.0,1.0*30
$GPRMC,083846.598,A,4307.156,N,01221.342,E,001.0,321.2,231021,000.0,W*78
$GPGGA,083847.598,4307.156,N,01221.342,E,1,12,1.0,0.0,M,0.0,M,,*6D
$GPGSA,A,3,01,02,03,04,05,06,07,08,09,10,11,12,1.0,1.0,1.0*30
$GPRMC,083847.598,A,4307.156,N,01221.342,E,001.0,321.2,231021,000.0,W*79
$GPGGA,083848.598,4307.157,N,01221.342,E,1,12,1.0,0.0,M,0.0,M,,*63
$GPGSA,A,3,01,02,03,04,05,06,07,08,09,10,11,12,1.0,1.0,1.0*30
$GPRMC,083848.598,A,4307.157,N,01221.342,E,001.0,321.2,231021,000.0,W*77
$GPGGA,083849.598,4307.157,N,01221.342,E,1,12,1.0,0.0,M,0.0,M,,*62
$GPGSA,A,3,01,02,03,04,05,06,07,08,09,10,11,12,1.0,1.0,1.0*30
$GPRMC,083849.598,A,4307.157,N,01221.342,E,001.0,290.8,231021,000.0,W*77
$GPGGA,083850.598,4307.157,N,01221.341,E,1,12,1.0,0.0,M,0.0,M,,*69
$GPGSA,A,3,01,02,03,04,05,06,07,08,09,10,11,12,1.0,1.0,1.0*30
$GPRMC,083850.598,A,4307.157,N,01221.341,E,001.0,290.8,231021,000.0,W*7C
$GPGGA,083851.598,4307.157,N,01221.341,E,1,12,1.0,0.0,M,0.0,M,,*68
$GPGSA,A,3,01,02,03,04,05,06,07,08,09,10,11,12,1.0,1.0,1.0*30
$GPRMC,083851.598,A,4307.157,N,01221.341,E,001.0,290.8,231021,000.0,W*7D
$GPGGA,083852.598,4307.157,N,01221.341,E,1,12,1.0,0.0,M,0.0,M,,*6B
$GPGSA,A,3,01,02,03,04,05,06,07,08,09,10,11,12,1.0,1.0,1.0*30
$GPRMC,083852.598,A,4307.157,N,01221.341,E,001.0,290.8,231021,000.0,W*7E
$GPGGA,083853.598,4307.157,N,01221.340,E,1,12,1.0,0.0,M,0.0,M,,*6B
$GPGSA,A,3,01,02,03,04,05,06,07,08,09,10,11,12,1.0,1.0,1.0*30
$GPRMC,083853.598,A,4307.157,N,01221.340,E,001.0,290.8,231021,000.0,W*7E
$GPGGA,083854.598,4307.157,N,01221.340,E,1,12,1.0,0.0,M,0.0,M,,*6C
$GPGSA,A,3,01,02,03,04,05,06,07,08,09,10,11,12,1.0,1.0,1.0*30
$GPRMC,083854.598,A,4307.157,N,01221.340,E,001.0,290.8,231021,000.0,W*79
$GPGGA,083855.598,4307.158,N,01221.340,E,1,12,1.0,0.0,M,0.0,M,,*62
$GPGSA,A,3,01,02,03,04,05,06,07,08,09,10,11,12,1.0,1.0,1.0*30
$GPRMC,083855.598,A,4307.158,N,01221.340,E,001.0,290.8,231021,000.0,W*77
$GPGGA,083856.598,4307.158,N,01221.339,E,1,12,1.0,0.0,M,0.0,M,,*6F
$GPGSA,A,3,01,02,03,04,05,06,07,08,09,10,11,12,1.0,1.0,1.0*30
$GPRMC,083856.598,A,4307.158,N,01221.339,E,001.0,290.8,231021,000.0,W*7A
$GPGGA,083857.598,4307.158,N,01221.339,E,1,12,1.0,0.0,M,0.0,M,,*6E
$GPGSA,A,3,01,02,03,04,05,06,07,08,09,10,11,12,1.0,1.0,1.0*30
$GPRMC,083857.598,A,4307.158,N,01221.339,E,001.0,273.1,231021,000.0,W*7F
$GPGGA,083858.598,4307.158,N,01221.339,E,1,12,1.0,0.0,M,0.0,M,,*61
$GPGSA,A,3,01,02,03,04,05,06,07,08,09,10,11,12,1.0,1.0,1.0*30
$GPRMC,083858.598,A,4307.158,N,01221.339,E,001.0,273.1,231021,000.0,W*70
$GPGGA,083859.598,4307.158,N,01221.338,E,1,12,1.0,0.0,M,0.0,M,,*61
$GPGSA,A,3,01,02,03,04,05,06,07,08,09,10,11,12,1.0,1.0,1.0*30
$GPRMC,083859.598,A,4307.158,N,01221.338,E,001.0,273.1,231021,000.0,W*70
$GPGGA,083900.598,4307.158,N,01221.338,E,1,12,1.0,0.0,M,0.0,M,,*6C
$GPGSA,A,3,01,02,03,04,05,06,07,08,09,10,11,12,1.0,1.0,1.0*30
$GPRMC,083900.598,A,4307.158,N,01221.338,E,001.0,273.1,231021,000.0,W*7D
$GPGGA,083901.598,4307.158,N,01221.338,E,1,12,1.0,0.0,M,0.0,M,,*6D
$GPGSA,A,3,01,02,03,04,05,06,07,08,09,10,11,12,1.0,1.0,1.0*30
$GPRMC,083901.598,A,4307.158,N,01221.338,E,001.0,273.1,231021,000.0,W*7C
$GPGGA,083902.598,4307.158,N,01221.337,E,1,12,1.0,0.0,M,0.0,M,,*61
$GPGSA,A,3,01,02,03,04,05,06,07,08,09,10,11,12,1.0,1.0,1.0*30
$GPRMC,083902.598,A,4307.158,N,01221.337,E,001.0,273.1,231021,000.0,W*70
$GPGGA,083903.598,4307.158,N,01221.337,E,1,12,1.0,0.0,M,0.0,M,,*60
$GPGSA,A,3,01,02,03,04,05,06,07,08,09,10,11,12,1.0,1.0,1.0*30
$GPRMC,083903.598,A,4307.158,N,01221.337,E,001.0,273.1,231021,000.0,W*71
$GPGGA,083904.598,4307.158,N,01221.337,E,1,12,1.0,0.0,M,0.0,M,,*67
$GPGSA,A,3,01,02,03,04,05,06,07,08,09,10,11,12,1.0,1.0,1.0*30
$GPRMC,083904.598,A,4307.158,N,01221.337,E,001.0,273.1,231021,000.0,W*76
$GPGGA,083905.598,4307.158,N,01221.336,E,1,12,1.0,0.0,M,0.0,M,,*67
$GPGSA,A,3,01,02,03,04,05,06,07,08,09,10,11,12,1.0,1.0,1.0*30
$GPRMC,083905.598,A,4307.158,N,01221.336,E,001.0,273.1,231021,000.0,W*76
$GPGGA,083906.598,4307.158,N,01221.336,E,1,12,1.0,0.0,M,0.0,M,,*64
$GPGSA,A,3,01,02,03,04,05,06,07,08,09,10,11,12,1.0,1.0,1.0*30
$GPRMC,083906.598,A,4307.158,N,01221.336,E,001.0,260.8,231021,000.0,W*7E
$GPGGA,083907.598,4307.158,N,01221.335,E,1,12,1.0,0.0,M,0.0,M,,*66
$GPGSA,A,3,01,02,03,04,05,06,07,08,09,10,11,12,1.0,1.0,1.0*30
$GPRMC,083907.598,A,4307.158,N,01221.335,E,001.0,260.8,231021,000.0,W*7C
$GPGGA,083908.598,4307.158,N,01221.335,E,1,12,1.0,0.0,M,0.0,M,,*69
$GPGSA,A,3,01,02,03,04,05,06,07,08,09,10,11,12,1.0,1.0,1.0*30
$GPRMC,083908.598,A,4307.158,N,01221.335,E,001.0,260.8,231021,000.0,W*73
$GPGGA,083909.598,4307.158,N,01221.335,E,1,12,1.0,0.0,M,0.0,M,,*68
$GPGSA,A,3,01,02,03,04,05,06,07,08,09,10,11,12,1.0,1.0,1.0*30
$GPRMC,083909.598,A,4307.158,N,01221.335,E,001.0,260.8,231021,000.0,W*72
$GPGGA,083910.598,4307.158,N,01221.334,E,1,12,1.0,0.0,M,0.0,M,,*61
$GPGSA,A,3,01,02,03,04,05,06,07,08,09,10,11,12,1.0,1.0,1.0*30
$GPRMC,083910.598,A,4307.158,N,01221.334,E,001.0,260.8,231021,000.0,W*7B
$GPGGA,083911.598,4307.158,N,01221.334,E,1,12,1.0,0.0,M,0.0,M,,*60
$GPGSA,A,3,01,02,03,04,05,06,07,08,09,10,11,12,1.0,1.0,1.0*30
$GPRMC,083911.598,A,4307.158,N,01221.334,E,001.0,260.8,231021,000.0,W*7A
$GPGGA,083912.598,4307.158,N,01221.334,E,1,12,1.0,0.0,M,0.0,M,,*63
$GPGSA,A,3,01,02,03,04,05,06,07,08,09,10,11,12,1.0,1.0,1.0*30
$GPRMC,083912.598,A,4307.158,N,01221.334,E,001.0,260.8,231021,000.0,W*79
$GPGGA,083913.598,4307.158,N,01221.333,E,1,12,1.0,0.0,M,0.0,M,,*65
$GPGSA,A,3,01,02,03,04,05,06,07,08,09,10,11,12,1.0,1.0,1.0*30
$GPRMC,083913.598,A,4307.158,N,01221.333,E,001.0,260.8,231021,000.0,W*7F
$GPGGA,083914.598,4307.158,N,01221.333,E,1,12,1.0,0.0,M,0.0,M,,*62
$GPGSA,A,3,01,02,03,04,05,06,07,08,09,10,11,12,1.0,1.0,1.0*30
$GPRMC,083914.598,A,4307.158,N,01221.333,E,001.0,260.8,231021,000.0,W*78
$GPGGA,083915.598,4307.158,N,01221.333,E,1,12,1.0,0.0,M,0.0,M,,*63
$GPGSA,A,3,01,02,03,04,05,06,07,08,09,10,11,12,1.0,1.0,1.0*30
$GPRMC,083915.598,A,4307.158,N,01221.333,E,001.0,260.8,231021,000.0,W*79
$GPGGA,083916.598,4307.157,N,01221.332,E,1,12,1.0,0.0,M,0.0,M,,*6E
$GPGSA,A,3,01,02,03,04,05,06,07,08,09,10,11,12,1.0,1.0,1.0*30
$GPRMC,083916.598,A,4307.157,N,01221.332,E,001.0,260.8,231021,000.0,W*74
$GPGGA,083917.598,4307.157,N,01221.332,E,1,12,1.0,0.0,M,0.0,M,,*6F
$GPGSA,A,3,01,02,03,04,05,06,07,08,09,10,11,12,1.0,1.0,1.0*30
$GPRMC,083917.598,A,4307.157,N,01221.332,E,001.0,260.8,231021,000.0,W*75
$GPGGA,083918.598,4307.157,N,01221.331,E,1,12,1.0,0.0,M,0.0,M,,*63
$GPGSA,A,3,01,02,03,04,05,06,07,08,09,10,11,12,1.0,1.0,1.0*30
$GPRMC,083918.598,A,4307.157,N,01221.331,E,001.0,250.3,231021,000.0,W*71
$GPGGA,083919.598,4307.157,N,01221.331,E,1,12,1.0,0.0,M,0.0,M,,*62
$GPGSA,A,3,01,02,03,04,05,06,07,08,09,10,11,12,1.0,1.0,1.0*30
$GPRMC,083919.598,A,4307.157,N,01221.331,E,001.0,250.3,231021,000.0,W*70
$GPGGA,083920.598,4307.157,N,01221.331,E,1,12,1.0,0.0,M,0.0,M,,*68
$GPGSA,A,3,01,02,03,04,05,06,07,08,09,10,11,12,1.0,1.0,1.0*30
$GPRMC,083920.598,A,4307.157,N,01221.331,E,001.0,250.3,231021,000.0,W*7A
$GPGGA,083921.598,4307.157,N,01221.330,E,1,12,1.0,0.0,M,0.0,M,,*68
$GPGSA,A,3,01,02,03,04,05,06,07,08,09,10,11,12,1.0,1.0,1.0*30
$GPRMC,083921.598,A,4307.157,N,01221.330,E,001.0,250.3,231021,000.0,W*7A
$GPGGA,083922.598,4307.157,N,01221.330,E,1,12,1.0,0.0,M,0.0,M,,*6B
$GPGSA,A,3,01,02,03,04,05,06,07,08,09,10,11,12,1.0,1.0,1.0*30
$GPRMC,083922.598,A,4307.157,N,01221.330,E,001.0,250.3,231021,000.0,W*79
$GPGGA,083923.598,4307.157,N,01221.330,E,1,12,1.0,0.0,M,0.0,M,,*6A
$GPGSA,A,3,01,02,03,04,05,06,07,08,09,10,11,12,1.0,1.0,1.0*30
$GPRMC,083923.598,A,4307.157,N,01221.330,E,001.0,250.3,231021,000.0,W*78
$GPGGA,083924.598,4307.157,N,01221.329,E,1,12,1.0,0.0,M,0.0,M,,*65
$GPGSA,A,3,01,02,03,04,05,06,07,08,09,10,11,12,1.0,1.0,1.0*30
$GPRMC,083924.598,A,4307.157,N,01221.329,E,001.0,250.3,231021,000.0,W*77
$GPGGA,083925.598,4307.157,N,01221.329,E,1,12,1.0,0.0,M,0.0,M,,*64
$GPGSA,A,3,01,02,03,04,05,06,07,08,09,10,11,12,1.0,1.0,1.0*30
$GPRMC,083925.598,A,4307.157,N,01221.329,E,001.0,250.3,231021,000.0,W*76
$GPGGA,083926.598,4307.156,N,01221.329,E,1,12,1.0,0.0,M,0.0,M,,*66
$GPGSA,A,3,01,02,03,04,05,06,07,08,09,10,11,12,1.0,1.0,1.0*30
$GPRMC,083926.598,A,4307.156,N,01221.329,E,001.0,250.3,231021,000.0,W*74
$GPGGA,083927.598,4307.156,N,01221.328,E,1,12,1.0,0.0,M,0.0,M,,*66
$GPGSA,A,3,01,02,03,04,05,06,07,08,09,10,11,12,1.0,1.0,1.0*30
$GPRMC,083927.598,A,4307.156,N,01221.328,E,001.0,250.3,231021,000.0,W*74
$GPGGA,083928.598,4307.156,N,01221.328,E,1,12,1.0,0.0,M,0.0,M,,*69
$GPGSA,A,3,01,02,03,04,05,06,07,08,09,10,11,12,1.0,1.0,1.0*30
$GPRMC,083928.598,A,4307.156,N,01221.328,E,001.0,250.3,231021,000.0,W*7B
$GPGGA,083929.598,4307.156,N,01221.328,E,1,12,1.0,0.0,M,0.0,M,,*68
$GPGSA,A,3,01,02,03,04,05,06,07,08,09,10,11,12,1.0,1.0,1.0*30
$GPRMC,083929.598,A,4307.156,N,01221.328,E,001.0,250.3,231021,000.0,W*7A
$GPGGA,083930.598,4307.156,N,01221.327,E,1,12,1.0,0.0,M,0.0,M,,*6F
$GPGSA,A,3,01,02,03,04,05,06,07,08,09,10,11,12,1.0,1.0,1.0*30
$GPRMC,083930.598,A,4307.156,N,01221.327,E,001.0,236.7,231021,000.0,W*79
$GPGGA,083931.598,4307.156,N,01221.327,E,1,12,1.0,0.0,M,0.0,M,,*6E
$GPGSA,A,3,01,02,03,04,05,06,07,08,09,10,11,12,1.0,1.0,1.0*30
$GPRMC,083931.598,A,4307.156,N,01221.327,E,001.0,236.7,231021,000.0,W*78
$GPGGA,083932.598,4307.156,N,01221.327,E,1,12,1.0,0.0,M,0.0,M,,*6D
$GPGSA,A,3,01,02,03,04,05,06,07,08,09,10,11,12,1.0,1.0,1.0*30
$GPRMC,083932.598,A,4307.156,N,01221.327,E,001.0,236.7,231021,000.0,W*7B
$GPGGA,083933.598,4307.155,N,01221.327,E,1,12,1.0,0.0,M,0.0,M,,*6F
$GPGSA,A,3,01,02,03,04,05,06,07,08,09,10,11,12,1.0,1.0,1.0*30
$GPRMC,083933.598,A,4307.155,N,01221.327,E,001.0,236.7,231021,000.0,W*79
$GPGGA,083934.598,4307.155,N,01221.326,E,1,12,1.0,0.0,M,0.0,M,,*69
$GPGSA,A,3,01,02,03,04,05,06,07,08,09,10,11,12,1.0,1.0,1.0*30
$GPRMC,083934.598,A,4307.155,N,01221.326,E,001.0,236.7,231021,000.0,W*7F
$GPGGA,083935.598,4307.155,N,01221.326,E,1,12,1.0,0.0,M,0.0,M,,*68
$GPGSA,A,3,01,02,03,04,05,06,07,08,09,10,11,12,1.0,1.0,1.0*30
$GPRMC,083935.598,A,4307.155,N,01221.326,E,001.0,236.7,231021,000.0,W*7E
$GPGGA,083936.598,4307.155,N,01221.326,E,1,12,1.0,0.0,M,0.0,M,,*6B
$GPGSA,A,3,01,02,03,04,05,06,07,08,09,10,11,12,1.0,1.0,1.0*30
$GPRMC,083936.598,A,4307.155,N,01221.326,E,001.0,236.7,231021,000.0,W*7D
$GPGGA,083937.598,4307.155,N,01221.326,E,1,12,1.0,0.0,M,0.0,M,,*6A
$GPGSA,A,3,01,02,03,04,05,06,07,08,09,10,11,12,1.0,1.0,1.0*30
$GPRMC,083937.598,A,4307.155,N,01221.326,E,001.0,236.7,231021,000.0,W*7C
$GPGGA,083938.598,4307.154,N,01221.325,E,1,12,1.0,0.0,M,0.0,M,,*67
$GPGSA,A,3,01,02,03,04,05,06,07,08,09,10,11,12,1.0,1.0,1.0*30
$GPRMC,083938.598,A,4307.154,N,01221.325,E,001.0,236.7,231021,000.0,W*71
$GPGGA,083939.598,4307.154,N,01221.325,E,1,12,1.0,0.0,M,0.0,M,,*66
$GPGSA,A,3,01,02,03,04,05,06,07,08,09,10,11,12,1.0,1.0,1.0*30
$GPRMC,083939.598,A,4307.154,N,01221.325,E,001.0,236.7,231021,000.0,W*70
$GPGGA,083940.598,4307.154,N,01221.325,E,1,12,1.0,0.0,M,0.0,M,,*68
$GPGSA,A,3,01,02,03,04,05,06,07,08,09,10,11,12,1.0,1.0,1.0*30
$GPRMC,083940.598,A,4307.154,N,01221.325,E,001.0,236.7,231021,000.0,W*7E
$GPGGA,083941.598,4307.154,N,01221.324,E,1,12,1.0,0.0,M,0.0,M,,*68
$GPGSA,A,3,01,02,03,04,05,06,07,08,09,10,11,12,1.0,1.0,1.0*30
$GPRMC,083941.598,A,4307.154,N,01221.324,E,001.0,236.7,231021,000.0,W*7E
$GPGGA,083942.598,4307.154,N,01221.324,E,1,12,1.0,0.0,M,0.0,M,,*6B
$GPGSA,A,3,01,02,03,04,05,06,07,08,09,10,11,12,1.0,1.0,1.0*30
$GPRMC,083942.598,A,4307.154,N,01221.324,E,001.0,236.7,231021,000.0,W*7D
$GPGGA,083943.598,4307.154,N,01221.324,E,1,12,1.0,0.0,M,0.0,M,,*6A
$GPGSA,A,3,01,02,03,04,05,06,07,08,09,10,11,12,1.0,1.0,1.0*30
$GPRMC,083943.598,A,4307.154,N,01221.324,E,001.0,236.7,231021,000.0,W*7C
$GPGGA,083944.598,4307.153,N,01221.324,E,1,12,1.0,0.0,M,0.0,M,,*6A
$GPGSA,A,3,01,02,03,04,05,06,07,08,09,10,11,12,1.0,1.0,1.0*30
$GPRMC,083944.598,A,4307.153,N,01221.324,E,001.0,236.7,231021,000.0,W*7C
$GPGGA,083945.598,4307.153,N,01221.323,E,1,12,1.0,0.0,M,0.0,M,,*6C
$GPGSA,A,3,01,02,03,04,05,06,07,08,09,10,11,12,1.0,1.0,1.0*30
$GPRMC,083945.598,A,4307.153,N,01221.323,E,001.0,236.7,231021,000.0,W*7A
$GPGGA,083946.598,4307.153,N,01221.323,E,1,12,1.0,0.0,M,0.0,M,,*6F
$GPGSA,A,3,01,02,03,04,05,06,07,08,09,10,11,12,1.0,1.0,1.0*30
$GPRMC,083946.598,A,4307.153,N,01221.323,E,001.0,258.9,231021,000.0,W*7F
$GPGGA,083947.598,4307.153,N,01221.323,E,1,12,1.0,0.0,M,0.0,M,,*6E
$GPGSA,A,3,01,02,03,04,05,06,07,08,09,10,11,12,1.0,1.0,1.0*30
$GPRMC,083947.598,A,4307.153,N,01221.323,E,001.0,258.9,231021,000.0,W*7E
$GPGGA,083948.598,4307.153,N,01221.322,E,1,12,1.0,0.0,M,0.0,M,,*60
$GPGSA,A,3,01,02,03,04,05,06,07,08,09,10,11,12,1.0,1.0,1.0*30
$GPRMC,083948.598,A,4307.153,N,01221.322,E,001.0,258.9,231021,000.0,W*70
$GPGGA,083949.598,4307.153,N,01221.322,E,1,12,1.0,0.0,M,0.0,M,,*61
$GPGSA,A,3,01,02,03,04,05,06,07,08,09,10,11,12,1.0,1.0,1.0*30
$GPRMC,083949.598,A,4307.153,N,01221.322,E,001.0,258.9,231021,000.0,W*71
$GPGGA,083950.598,4307.153,N,01221.322,E,1,12,1.0,0.0,M,0.0,M,,*69
$GPGSA,A,3,01,02,03,04,05,06,07,08,09,10,11,12,1.0,1.0,1.0*30
$GPRMC,083950.598,A,4307.153,N,01221.322,E,001.0,258.9,231021,000.0,W*79
$GPGGA,083951.598,4307.153,N,01221.321,E,1,12,1.0,0.0,M,0.0,M,,*6B
$GPGSA,A,3,01,02,03,04,05,06,07,08,09,10,11,12,1.0,1.0,1.0*30
$GPRMC,083951.598,A,4307.153,N,01221.321,E,001.0,258.9,231021,000.0,W*7B
$GPGGA,083952.598,4307.153,N,01221.321,E,1,12,1.0,0.0,M,0.0,M,,*68
$GPGSA,A,3,01,02,03,04,05,06,07,08,09,10,11,12,1.0,1.0,1.0*30
$GPRMC,083952.598,A,4307.153,N,01221.321,E,001.0,258.9,231021,000.0,W*78
$GPGGA,083953.598,4307.153,N,01221.321,E,1,12,1.0,0.0,M,0.0,M,,*69
$GPGSA,A,3,01,02,03,04,05,06,07,08,09,10,11,12,1.0,1.0,1.0*30
$GPRMC,083953.598,A,4307.153,N,01221.321,E,001.0,258.9,231021,000.0,W*79
$GPGGA,083954.598,4307.152,N,01221.320,E,1,12,1.0,0.0,M,0.0,M,,*6E
$GPGSA,A,3,01,02,03,04,05,06,07,08,09,10,11,12,1.0,1.0,1.0*30
$GPRMC,083954.598,A,4307.152,N,01221.320,E,001.0,258.9,231021,000.0,W*7E
$GPGGA,083955.598,4307.152,N,01221.320,E,1,12,1.0,0.0,M,0.0,M,,*6F
$GPGSA,A,3,01,02,03,04,05,06,07,08,09,10,11,12,1.0,1.0,1.0*30
$GPRMC,083955.598,A,4307.152,N,01221.320,E,001.0,252.6,231021,000.0,W*7A
$GPGGA,083956.598,4307.152,N,01221.320,E,1,12,1.0,0.0,M,0.0,M,,*6C
$GPGSA,A,3,01,02,03,04,05,06,07,08,09,10,11,12,1.0,1.0,1.0*30
$GPRMC,083956.598,A,4307.152,N,01221.320,E,001.0,252.6,231021,000.0,W*79
$GPGGA,083957.598,4307.152,N,01221.319,E,1,12,1.0,0.0,M,0.0,M,,*67
$GPGSA,A,3,01,02,03,04,05,06,07,08,09,10,11,12,1.0,1.0,1.0*30
$GPRMC,083957.598,A,4307.152,N,01221.319,E,001.0,252.6,231021,000.0,W*72
$GPGGA,083958.598,4307.152,N,01221.319,E,1,12,1.0,0.0,M,0.0,M,,*68
$GPGSA,A,3,01,02,03,04,05,06,07,08,09,10,11,12,1.0,1.0,1.0*30
$GPRMC,083958.598,A,4307.152,N,01221.319,E,001.0,252.6,231021,000.0,W*7D
$GPGGA,083959.598,4307.152,N,01221.319,E,1,12,1.0,0.0,M,0.0,M,,*69
$GPGSA,A,3,01,02,03,04,05,06,07,08,09,10,11,12,1.0,1.0,1.0*30
$GPRMC,083959.598,A,4307.152,N,01221.319,E,001.0,252.6,231021,000.0,W*7C
$GPGGA,084000.598,4307.152,N,01221.318,E,1,12,1.0,0.0,M,0.0,M,,*6A
$GPGSA,A,3,01,02,03,04,05,06,07,08,09,10,11,12,1.0,1.0,1.0*30
$GPRMC,084000.598,A,4307.152,N,01221.318,E,001.0,252.6,231021,000.0,W*7F
$GPGGA,084001.598,4307.152,N,01221.318,E,1,12,1.0,0.0,M,0.0,M,,*6B
$GPGSA,A,3,01,02,03,04,05,06,07,08,09,10,11,12,1.0,1.0,1.0*30
$GPRMC,084001.598,A,4307.152,N,01221.318,E,001.0,252.6,231021,000.0,W*7E
$GPGGA,084002.598,4307.152,N,01221.317,E,1,12,1.0,0.0,M,0.0,M,,*67
$GPGSA,A,3,01,02,03,04,05,06,07,08,09,10,11,12,1.0,1.0,1.0*30
$GPRMC,084002.598,A,4307.152,N,01221.317,E,001.0,252.6,231021,000.0,W*72
$GPGGA,084003.598,4307.152,N,01221.317,E,1,12,1.0,0.0,M,0.0,M,,*66
$GPGSA,A,3,01,02,03,04,05,06,07,08,09,10,11,12,1.0,1.0,1.0*30
$GPRMC,084003.598,A,4307.152,N,01221.317,E,001.0,252.6,231021,000.0,W*73
$GPGGA,084004.598,4307.151,N,01221.317,E,1,12,1.0,0.0,M,0.0,M,,*62
$GPGSA,A,3,01,02,03,04,05,06,07,08,09,10,11,12,1.0,1.0,1.0*30
$GPRMC,084004.598,A,4307.151,N,01221.317,E,001.0,252.6,231021,000.0,W*77
$GPGGA,084005.598,4307.151,N,01221.316,E,1,12,1.0,0.0,M,0.0,M,,*62
$GPGSA,A,3,01,02,03,04,05,06,07,08,09,10,11,12,1.0,1.0,1.0*30
$GPRMC,084005.598,A,4307.151,N,01221.316,E,001.0,252.6,231021,000.0,W*77
$GPGGA,084006.598,4307.151,N,01221.316,E,1,12,1.0,0.0,M,0.0,M,,*61
$GPGSA,A,3,01,02,03,04,05,06,07,08,09,10,11,12,1.0,1.0,1.0*30
$GPRMC,084006.598,A,4307.151,N,01221.316,E,001.0,252.6,231021,000.0,W*74
$GPGGA,084007.598,4307.151,N,01221.316,E,1,12,1.0,0.0,M,0.0,M,,*60
$GPGSA,A,3,01,02,03,04,05,06,07,08,09,10,11,12,1.0,1.0,1.0*30
$GPRMC,084007.598,A,4307.151,N,01221.316,E,001.0,252.6,231021,000.0,W*75
$GPGGA,084008.598,4307.151,N,01221.315,E,1,12,1.0,0.0,M,0.0,M,,*6C
$GPGSA,A,3,01,02,03,04,05,06,07,08,09,10,11,12,1.0,1.0,1.0*30
$GPRMC,084008.598,A,4307.151,N,01221.315,E,001.0,245.8,231021,000.0,W*71
$GPGGA,084009.598,4307.151,N,01221.315,E,1,12,1.0,0.0,M,0.0,M,,*6D
$GPGSA,A,3,01,02,03,04,05,06,07,08,09,10,11,12,1.0,1.0,1.0*30
$GPRMC,084009.598,A,4307.151,N,01221.315,E,001.0,245.8,231021,000.0,W*70
$GPGGA,084010.598,4307.151,N,01221.315,E,1,12,1.0,0.0,M,0.0,M,,*65
$GPGSA,A,3,01,02,03,04,05,06,07,08,09,10,11,12,1.0,1.0,1.0*30
$GPRMC,084010.598,A,4307.151,N,01221.315,E,001.0,245.8,231021,000.0,W*78
$GPGGA,084011.598,4307.151,N,01221.315,E,1,12,1.0,0.0,M,0.0,M,,*64
$GPGSA,A,3,01,02,03,04,05,06,07,08,09,10,11,12,1.0,1.0,1.0*30
$GPRMC,084011.598,A,4307.151,N,01221.315,E,001.0,245.8,231021,000.0,W*79
$GPGGA,084012.598,4307.150,N,01221.314,E,1,12,1.0,0.0,M,0.0,M,,*67
$GPGSA,A,3,01,02,03,04,05,06,07,08,09,10,11,12,1.0,1.0,1.0*30
$GPRMC,084012.598,A,4307.150,N,01221.314,E,001.0,245.8,231021,000.0,W*7A
$GPGGA,084013.598,4307.150,N,01221.314,E,1,12,1.0,0.0,M,0.0,M,,*66
$GPGSA,A,3,01,02,03,04,05,06,07,08,09,10,11,12,1.0,1.0,1.0*30
$GPRMC,084013.598,A,4307.150,N,01221.314,E,001.0,245.8,231021,000.0,W*7B
$GPGGA,084014.598,4307.150,N,01221.314,E,1,12,1.0,0.0,M,0.0,M,,*61
$GPGSA,A,3,01,02,03,04,05,06,07,08,09,10,11,12,1.0,1.0,1.0*30
$GPRMC,084014.598,A,4307.150,N,01221.314,E,001.0,245.8,231021,000.0,W*7C
$GPGGA,084015.598,4307.150,N,01221.313,E,1,12,1.0,0.0,M,0.0,M,,*67
$GPGSA,A,3,01,02,03,04,05,06,07,08,09,10,11,12,1.0,1.0,1.0*30
$GPRMC,084015.598,A,4307.150,N,01221.313,E,001.0,245.8,231021,000.0,W*7A
$GPGGA,084016.598,4307.150,N,01221.313,E,1,12,1.0,0.0,M,0.0,M,,*64
$GPGSA,A,3,01,02,03,04,05,06,07,08,09,10,11,12,1.0,1.0,1.0*30
$GPRMC,084016.598,A,4307.150,N,01221.313,E,001.0,245.8,231021,000.0,W*79
$GPGGA,084017.598,4307.150,N,01221.313,E,1,12,1.0,0.0,M,0.0,M,,*65
$GPGSA,A,3,01,02,03,04,05,06,07,08,09,10,11,12,1.0,1.0,1.0*30
$GPRMC,084017.598,A,4307.150,N,01221.313,E,001.0,245.8,231021,000.0,W*78
$GPGGA,084018.598,4307.150,N,01221.312,E,1,12,1.0,0.0,M,0.0,M,,*6B
$GPGSA,A,3,01,02,03,04,05,06,07,08,09,10,11,12,1.0,1.0,1.0*30
$GPRMC,084018.598,A,4307.150,N,01221.312,E,001.0,245.8,231021,000.0,W*76
$GPGGA,084019.598,4307.149,N,01221.312,E,1,12,1.0,0.0,M,0.0,M,,*62
$GPGSA,A,3,01,02,03,04,05,06,07,08,09,10,11,12,1.0,1.0,1.0*30
$GPRMC,084019.598,A,4307.149,N,01221.312,E,001.0,245.8,231021,000.0,W*7F
$GPGGA,084020.598,4307.149,N,01221.312,E,1,12,1.0,0.0,M,0.0,M,,*68
$GPGSA,A,3,01,02,03,04,05,06,07,08,09,10,11,12,1.0,1.0,1.0*30
$GPRMC,084020.598,A,4307.149,N,01221.312,E,001.0,245.8,231021,000.0,W*75
$GPGGA,084021.598,4307.149,N,01221.311,E,1,12,1.0,0.0,M,0.0,M,,*6A
$GPGSA,A,3,01,02,03,04,05,06,07,08,09,10,11,12,1.0,1.0,1.0*30
$GPRMC,084021.598,A,4307.149,N,01221.311,E,001.0,245.8,231021,000.0,W*77
$GPGGA,084022.598,4307.149,N,01221.311,E,1,12,1.0,0.0,M,0.0,M,,*69
$GPGSA,A,3,01,02,03,04,05,06,07,08,09,10,11,12,1.0,1.0,1.0*30
$GPRMC,084022.598,A,4307.149,N,01221.311,E,001.0,245.8,231021,000.0,W*74
$GPGGA,084023.598,4307.149,N,01221.311,E,1,12,1.0,0.0,M,0.0,M,,*68
$GPGSA,A,3,01,02,03,04,05,06,07,08,09,10,11,12,1.0,1.0,1.0*30
$GPRMC,084023.598,A,4307.149,N,01221.311,E,001.0,245.8,231021,000.0,W*75
$GPGGA,084024.598,4307.149,N,01221.310,E,1,12,1.0,0.0,M,0.0,M,,*6E
$GPGSA,A,3,01,02,03,04,05,06,07,08,09,10,11,12,1.0,1.0,1.0*30
$GPRMC,084024.598,A,4307.149,N,01221.310,E,001.0,259.9,231021,000.0,W*7F
$GPGGA,084025.598,4307.149,N,01221.310,E,1,12,1.0,0.0,M,0.0,M,,*6F
$GPGSA,A,3,01,02,03,04,05,06,07,08,09,10,11,12,1.0,1.0,1.0*30
$GPRMC,084025.598,A,4307.149,N,01221.310,E,001.0,259.9,231021,000.0,W*7E
$GPGGA,084026.598,4307.149,N,01221.310,E,1,12,1.0,0.0,M,0.0,M,,*6C
$GPGSA,A,3,01,02,03,04,05,06,07,08,09,10,11,12,1.0,1.0,1.0*30
$GPRMC,084026.598,A,4307.149,N,01221.310,E,001.0,259.9,231021,000.0,W*7D
$GPGGA,084027.598,4307.149,N,01221.309,E,1,12,1.0,0.0,M,0.0,M,,*65
$GPGSA,A,3,01,02,03,04,05,06,07,08,09,10,11,12,1.0,1.0,1.0*30
$GPRMC,084027.598,A,4307.149,N,01221.309,E,001.0,259.9,231021,000.0,W*74
$GPGGA,084028.598,4307.149,N,01221.309,E,1,12,1.0,0.0,M,0.0,M,,*6A
$GPGSA,A,3,01,02,03,04,05,06,07,08,09,10,11,12,1.0,1.0,1.0*30
$GPRMC,084028.598,A,4307.149,N,01221.309,E,001.0,259.9,231021,000.0,W*7B
$GPGGA,084029.598,4307.148,N,01221.309,E,1,12,1.0,0.0,M,0.0,M,,*6A
$GPGSA,A,3,01,02,03,04,05,06,07,08,09,10,11,12,1.0,1.0,1.0*30
$GPRMC,084029.598,A,4307.148,N,01221.309,E,001.0,259.9,231021,000.0,W*7B
$GPGGA,084030.598,4307.148,N,01221.308,E,1,12,1.0,0.0,M,0.0,M,,*63
$GPGSA,A,3,01,02,03,04,05,06,07,08,09,10,11,12,1.0,1.0,1.0*30
$GPRMC,084030.598,A,4307.148,N,01221.308,E,001.0,259.9,231021,000.0,W*72
$GPGGA,084031.598,4307.148,N,01221.308,E,1,12,1.0,0.0,M,0.0,M,,*62
$GPGSA,A,3,01,02,03,04,05,06,07,08,09,10,11,12,1.0,1.0,1.0*30
$GPRMC,084031.598,A,4307.148,N,01221.308,E,001.0,259.9,231021,000.0,W*73
$GPGGA,084032.598,4307.148,N,01221.308,E,1,12,1.0,0.0,M,0.0,M,,*61
$GPGSA,A,3,01,02,03,04,05,06,07,08,09,10,11,12,1.0,1.0,1.0*30
$GPRMC,084032.598,A,4307.148,N,01221.308,E,001.0,259.9,231021,000.0,W*70
$GPGGA,084033.598,4307.148,N,01221.307,E,1,12,1.0,0.0,M,0.0,M,,*6F
$GPGSA,A,3,01,02,03,04,05,06,07,08,09,10,11,12,1.0,1.0,1.0*30
$GPRMC,084033.598,A,4307.148,N,01221.307,E,001.0,259.9,231021,000.0,W*7E
$GPGGA,084034.598,4307.148,N,01221.307,E,1,12,1.0,0.0,M,0.0,M,,*68
$GPGSA,A,3,01,02,03,04,05,06,07,08,09,10,11,12,1.0,1.0,1.0*30
$GPRMC,084034.598,A,4307.148,N,01221.307,E,001.0,251.7,231021,000.0,W*7F
$GPGGA,084035.598,4307.148,N,01221.306,E,1,12,1.0,0.0,M,0.0,M,,*68
$GPGSA,A,3,01,02,03,04,05,06,07,08,09,10,11,12,1.0,1.0,1.0*30
$GPRMC,084035.598,A,4307.148,N,01221.306,E,001.0,251.7,231021,000.0,W*7F
$GPGGA,084036.598,4307.148,N,01221.306,E,1,12,1.0,0.0,M,0.0,M,,*6B
$GPGSA,A,3,01,02,03,04,05,06,07,08,09,10,11,12,1.0,1.0,1.0*30
$GPRMC,084036.598,A,4307.148,N,01221.306,E,001.0,251.7,231021,000.0,W*7C
$GPGGA,084037.598,4307.148,N,01221.306,E,1,12,1.0,0.0,M,0.0,M,,*6A
$GPGSA,A,3,01,02,03,04,05,06,07,08,09,10,11,12,1.0,1.0,1.0*30
$GPRMC,084037.598,A,4307.148,N,01221.306,E,001.0,251.7,231021,000.0,W*7D
$GPGGA,084038.598,4307.148,N,01221.305,E,1,12,1.0,0.0,M,0.0,M,,*66
$GPGSA,A,3,01,02,03,04,05,06,07,08,09,10,11,12,1.0,1.0,1.0*30
$GPRMC,084038.598,A,4307.148,N,01221.305,E,001.0,251.7,231021,000.0,W*71
$GPGGA,084039.598,4307.148,N,01221.305,E,1,12,1.0,0.0,M,0.0,M,,*67
$GPGSA,A,3,01,02,03,04,05,06,07,08,09,10,11,12,1.0,1.0,1.0*30
$GPRMC,084039.598,A,4307.148,N,01221.305,E,001.0,251.7,231021,000.0,W*70
$GPGGA,084040.598,4307.147,N,01221.305,E,1,12,1.0,0.0,M,0.0,M,,*66
$GPGSA,A,3,01,02,03,04,05,06,07,08,09,10,11,12,1.0,1.0,1.0*30
$GPRMC,084040.598,A,4307.147,N,01221.305,E,001.0,251.7,231021,000.0,W*71
$GPGGA,084041.598,4307.147,N,01221.304,E,1,12,1.0,0.0,M,0.0,M,,*66
$GPGSA,A,3,01,02,03,04,05,06,07,08,09,10,11,12,1.0,1.0,1.0*30
$GPRMC,084041.598,A,4307.147,N,01221.304,E,001.0,251.7,231021,000.0,W*71
$GPGGA,084042.598,4307.147,N,01221.304,E,1,12,1.0,0.0,M,0.0,M,,*65
$GPGSA,A,3,01,02,03,04,05,06,07,08,09,10,11,12,1.0,1.0,1.0*30
$GPRMC,084042.598,A,4307.147,N,01221.304,E,001.0,251.7,231021,000.0,W*72
$GPGGA,084043.598,4307.147,N,01221.304,E,1,12,1.0,0.0,M,0.0,M,,*64
$GPGSA,A,3,01,02,03,04,05,06,07,08,09,10,11,12,1.0,1.0,1.0*30
$GPRMC,084043.598,A,4307.147,N,01221.304,E,001.0,251.7,231021,000.0,W*73
$GPGGA,084044.598,4307.147,N,01221.303,E,1,12,1.0,0.0,M,0.0,M,,*64
$GPGSA,A,3,01,02,03,04,05,06,07,08,09,10,11,12,1.0,1.0,1.0*30
$GPRMC,084044.598,A,4307.147,N,01221.303,E,001.0,251.7,231021,000.0,W*73
$GPGGA,084045.598,4307.147,N,01221.303,E,1,12,1.0,0.0,M,0.0,M,,*65
$GPGSA,A,3,01,02,03,04,05,06,07,08,09,10,11,12,1.0,1.0,1.0*30
$GPRMC,084045.598,A,4307.147,N,01221.303,E,001.0,251.7,231021,000.0,W*72
$GPGGA,084046.598,4307.147,N,01221.303,E,1,12,1.0,0.0,M,0.0,M,,*66
$GPGSA,A,3,01,02,03,04,05,06,07,08,09,10,11,12,1.0,1.0,1.0*30
$GPRMC,084046.598,A,4307.147,N,01221.303,E,001.0,215.8,231021,000.0,W*7E
$GPGGA,084047.598,4307.147,N,01221.303,E,1,12,1.0,0.0,M,0.0,M,,*67
$GPGSA,A,3,01,02,03,04,05,06,07,08,09,10,11,12,1.0,1.0,1.0*30
$GPRMC,084047.598,A,4307.147,N,01221.303,E,001.0,215.8,231021,000.0,W*7F
$GPGGA,084048.598,4307.146,N,01221.302,E,1,12,1.0,0.0,M,0.0,M,,*68
$GPGSA,A,3,01,02,03,04,05,06,07,08,09,10,11,12,1.0,1.0,1.0*30
$GPRMC,084048.598,A,4307.146,N,01221.302,E,001.0,215.8,231021,000.0,W*70
$GPGGA,084049.598,4307.146,N,01221.302,E,1,12,1.0,0.0,M,0.0,M,,*69
$GPGSA,A,3,01,02,03,04,05,06,07,08,09,10,11,12,1.0,1.0,1.0*30
$GPRMC,084049.598,A,4307.146,N,01221.302,E,001.0,215.8,231021,000.0,W*71
$GPGGA,084050.598,4307.146,N,01221.302,E,1,12,1.0,0.0,M,0.0,M,,*61
$GPGSA,A,3,01,02,03,04,05,06,07,08,09,10,11,12,1.0,1.0,1.0*30
$GPRMC,084050.598,A,4307.146,N,01221.302,E,001.0,215.8,231021,000.0,W*79
$GPGGA,084051.598,4307.146,N,01221.302,E,1,12,1.0,0.0,M,0.0,M,,*60
$GPGSA,A,3,01,02,03,04,05,06,07,08,09,10,11,12,1.0,1.0,1.0*30
$GPRMC,084051.598,A,4307.146,N,01221.302,E,001.0,215.8,231021,000.0,W*78
$GPGGA,084052.598,4307.145,N,01221.302,E,1,12,1.0,0.0,M,0.0,M,,*60
$GPGSA,A,3,01,02,03,04,05,06,07,08,09,10,11,12,1.0,1.0,1.0*30
$GPRMC,084052.598,A,4307.145,N,01221.302,E,001.0,215.8,231021,000.0,W*78
$GPGGA,084053.598,4307.145,N,01221.302,E,1,12,1.0,0.0,M,0.0,M,,*61
$GPGSA,A,3,01,02,03,04,05,06,07,08,09,10,11,12,1.0,1.0,1.0*30
$GPRMC,084053.598,A,4307.145,N,01221.302,E,001.0,215.8,231021,000.0,W*79
$GPGGA,084054.598,4307.145,N,01221.301,E,1,12,1.0,0.0,M,0.0,M,,*65
$GPGSA,A,3,01,02,03,04,05,06,07,08,09,10,11,12,1.0,1.0,1.0*30
$GPRMC,084054.598,A,4307.145,N,01221.301,E,001.0,215.8,231021,000.0,W*7D
$GPGGA,084055.598,4307.145,N,01221.301,E,1,12,1.0,0.0,M,0.0,M,,*64
$GPGSA,A,3,01,02,03,04,05,06,07,08,09,10,11,12,1.0,1.0,1.0*30
$GPRMC,084055.598,A,4307.145,N,01221.301,E,001.0,203.6,231021,000.0,W*75
$GPGGA,084056.598,4307.144,N,01221.301,E,1,12,1.0,0.0,M,0.0,M,,*66
$GPGSA,A,3,01,02,03,04,05,06,07,08,09,10,11,12,1.0,1.0,1.0*30
$GPRMC,084056.598,A,4307.144,N,01221.301,E,001.0,203.6,231021,000.0,W*77
$GPGGA,084057.598,4307.144,N,01221.301,E,1,12,1.0,0.0,M,0.0,M,,*67
$GPGSA,A,3,01,02,03,04,05,06,07,08,09,10,11,12,1.0,1.0,1.0*30
$GPRMC,084057.598,A,4307.144,N,01221.301,E,001.0,203.6,231021,000.0,W*76
$GPGGA,084058.598,4307.144,N,01221.301,E,1,12,1.0,0.0,M,0.0,M,,*68
$GPGSA,A,3,01,02,03,04,05,06,07,08,09,10,11,12,1.0,1.0,1.0*30
$GPRMC,084058.598,A,4307.144,N,01221.301,E,001.0,203.6,231021,000.0,W*79
$GPGGA,084059.598,4307.144,N,01221.301,E,1,12,1.0,0.0,M,0.0,M,,*69
$GPGSA,A,3,01,02,03,04,05,06,07,08,09,10,11,12,1.0,1.0,1.0*30
$GPRMC,084059.598,A,4307.144,N,01221.301,E,001.0,203.6,231021,000.0,W*78
$GPGGA,084100.598,4307.143,N,01221.301,E,1,12,1.0,0.0,M,0.0,M,,*63
$GPGSA,A,3,01,02,03,04,05,06,07,08,09,10,11,12,1.0,1.0,1.0*30
$GPRMC,084100.598,A,4307.143,N,01221.301,E,001.0,203.6,231021,000.0,W*72
$GPGGA,084101.598,4307.143,N,01221.301,E,1,12,1.0,0.0,M,0.0,M,,*62
$GPGSA,A,3,01,02,03,04,05,06,07,08,09,10,11,12,1.0,1.0,1.0*30
$GPRMC,084101.598,A,4307.143,N,01221.301,E,001.0,203.6,231021,000.0,W*73
$GPGGA,084102.598,4307.143,N,01221.300,E,1,12,1.0,0.0,M,0.0,M,,*60
$GPGSA,A,3,01,02,03,04,05,06,07,08,09,10,11,12,1.0,1.0,1.0*30
$GPRMC,084102.598,A,4307.143,N,01221.300,E,001.0,203.6,231021,000.0,W*71
$GPGGA,084103.598,4307.143,N,01221.300,E,1,12,1.0,0.0,M,0.0,M,,*61
$GPGSA,A,3,01,02,03,04,05,06,07,08,09,10,11,12,1.0,1.0,1.0*30
$GPRMC,084103.598,A,4307.143,N,01221.300,E,001.0,203.6,231021,000.0,W*70
$GPGGA,084104.598,4307.142,N,01221.300,E,1,12,1.0,0.0,M,0.0,M,,*67
$GPGSA,A,3,01,02,03,04,05,06,07,08,09,10,11,12,1.0,1.0,1.0*30
$GPRMC,084104.598,A,4307.142,N,01221.300,E,001.0,203.6,231021,000.0,W*76
$GPGGA,084105.598,4307.142,N,01221.300,E,1,12,1.0,0.0,M,0.0,M,,*66
$GPGSA,A,3,01,02,03,04,05,06,07,08,09,10,11,12,1.0,1.0,1.0*30
$GPRMC,084105.598,A,4307.142,N,01221.300,E,001.0,203.6,231021,000.0,W*77
$GPGGA,084106.598,4307.142,N,01221.300,E,1,12,1.0,0.0,M,0.0,M,,*65
$GPGSA,A,3,01,02,03,04,05,06,07,08,09,10,11,12,1.0,1.0,1.0*30
$GPRMC,084106.598,A,4307.142,N,01221.300,E,001.0,171.8,231021,000.0,W*7C
$GPGGA,084107.598,4307.142,N,01221.300,E,1,12,1.0,0.0,M,0.0,M,,*64
$GPGSA,A,3,01,02,03,04,05,06,07,08,09,10,11,12,1.0,1.0,1.0*30
$GPRMC,084107.598,A,4307.142,N,01221.300,E,001.0,171.8,231021,000.0,W*7D
$GPGGA,084108.598,4307.141,N,01221.300,E,1,12,1.0,0.0,M,0.0,M,,*68
$GPGSA,A,3,01,02,03,04,05,06,07,08,09,10,11,12,1.0,1.0,1.0*30
$GPRMC,084108.598,A,4307.141,N,01221.300,E,001.0,171.8,231021,000.0,W*71
$GPGGA,084109.598,4307.141,N,01221.300,E,1,12,1.0,0.0,M,0.0,M,,*69
$GPGSA,A,3,01,02,03,04,05,06,07,08,09,10,11,12,1.0,1.0,1.0*30
$GPRMC,084109.598,A,4307.141,N,01221.300,E,001.0,171.8,231021,000.0,W*70
$GPGGA,084110.598,4307.141,N,01221.300,E,1,12,1.0,0.0,M,0.0,M,,*61
$GPGSA,A,3,01,02,03,04,05,06,07,08,09,10,11,12,1.0,1.0,1.0*30
$GPRMC,084110.598,A,4307.141,N,01221.300,E,001.0,171.8,231021,000.0,W*78
$GPGGA,084111.598,4307.140,N,01221.300,E,1,12,1.0,0.0,M,0.0,M,,*61
$GPGSA,A,3,01,02,03,04,05,06,07,08,09,10,11,12,1.0,1.0,1.0*30
$GPRMC,084111.598,A,4307.140,N,01221.300,E,001.0,171.8,231021,000.0,W*78
$GPGGA,084112.598,4307.140,N,01221.300,E,1,12,1.0,0.0,M,0.0,M,,*62
$GPGSA,A,3,01,02,03,04,05,06,07,08,09,10,11,12,1.0,1.0,1.0*30
$GPRMC,084112.598,A,4307.140,N,01221.300,E,001.0,171.8,231021,000.0,W*7B
$GPGGA,084113.598,4307.140,N,01221.300,E,1,12,1.0,0.0,M,0.0,M,,*63
$GPGSA,A,3,01,02,03,04,05,06,07,08,09,10,11,12,1.0,1.0,1.0*30
$GPRMC,084113.598,A,4307.140,N,01221.300,E,001.0,133.0,231021,000.0,W*74
$GPGGA,084114.598,4307.140,N,01221.300,E,1,12,1.0,0.0,M,0.0,M,,*64
$GPGSA,A,3,01,02,03,04,05,06,07,08,09,10,11,12,1.0,1.0,1.0*30
$GPRMC,084114.598,A,4307.140,N,01221.300,E,001.0,133.0,231021,000.0,W*73
$GPGGA,084115.598,4307.140,N,01221.301,E,1,12,1.0,0.0,M,0.0,M,,*64
$GPGSA,A,3,01,02,03,04,05,06,07,08,09,10,11,12,1.0,1.0,1.0*30
$GPRMC,084115.598,A,4307.140,N,01221.301,E,001.0,133.0,231021,000.0,W*73
$GPGGA,084116.598,4307.139,N,01221.301,E,1,12,1.0,0.0,M,0.0,M,,*69
$GPGSA,A,3,01,02,03,04,05,06,07,08,09,10,11,12,1.0,1.0,1.0*30
$GPRMC,084116.598,A,4307.139,N,01221.301,E,001.0,133.0,231021,000.0,W*7E
$GPGGA,084117.598,4307.139,N,01221.301,E,1,12,1.0,0.0,M,0.0,M,,*68
$GPGSA,A,3,01,02,03,04,05,06,07,08,09,10,11,12,1.0,1.0,1.0*30
$GPRMC,084117.598,A,4307.139,N,01221.301,E,001.0,157.1,231021,000.0,W*7C
$GPGGA,084118.598,4307.139,N,01221.301,E,1,12,1.0,0.0,M,0.0,M,,*67
$GPGSA,A,3,01,02,03,04,05,06,07,08,09,10,11,12,1.0,1.0,1.0*30
$GPRMC,084118.598,A,4307.139,N,01221.301,E,001.0,157.1,231021,000.0,W*73
$GPGGA,084119.598,4307.139,N,01221.301,E,1,12,1.0,0.0,M,0.0,M,,*66
$GPGSA,A,3,01,02,03,04,05,06,07,08,09,10,11,12,1.0,1.0,1.0*30
$GPRMC,084119.598,A,4307.139,N,01221.301,E,001.0,157.1,231021,000.0,W*72
$GPGGA,084120.598,4307.138,N,01221.301,E,1,12,1.0,0.0,M,0.0,M,,*6D
$GPGSA,A,3,01,02,03,04,05,06,07,08,09,10,11,12,1.0,1.0,1.0*30
$GPRMC,084120.598,A,4307.138,N,01221.301,E,001.0,157.1,231021,000.0,W*79
$GPGGA,084121.598,4307.138,N,01221.302,E,1,12,1.0,0.0,M,0.0,M,,*6F
$GPGSA,A,3,01,02,03,04,05,06,07,08,09,10,11,12,1.0,1.0,1.0*30
$GPRMC,084121.598,A,4307.138,N,01221.302,E,001.0,157.1,231021,000.0,W*7B
$GPGGA,084122.598,4307.138,N,01221.302,E,1,12,1.0,0.0,M,0.0,M,,*6C
$GPGSA,A,3,01,02,03,04,05,06,07,08,09,10,11,12,1.0,1.0,1.0*30
$GPRMC,084122.598,A,4307.138,N,01221.302,E,001.0,157.1,231021,000.0,W*78
$GPGGA,084123.598,4307.138,N,01221.302,E,1,12,1.0,0.0,M,0.0,M,,*6D
$GPGSA,A,3,01,02,03,04,05,06,07,08,09,10,11,12,1.0,1.0,1.0*30
$GPRMC,084123.598,A,4307.138,N,01221.302,E,001.0,157.1,231021,000.0,W*79
$GPGGA,084124.598,4307.137,N,01221.302,E,1,12,1.0,0.0,M,0.0,M,,*65
$GPGSA,A,3,01,02,03,04,05,06,07,08,09,10,11,12,1.0,1.0,1.0*30
$GPRMC,084124.598,A,4307.137,N,01221.302,E,001.0,157.1,231021,000.0,W*71
$GPGGA,084125.598,4307.137,N,01221.302,E,1,12,1.0,0.0,M,0.0,M,,*64
$GPGSA,A,3,01,02,03,04,05,06,07,08,09,10,11,12,1.0,1.0,1.0*30
$GPRMC,084125.598,A,4307.137,N,01221.302,E,001.0,157.1,231021,000.0,W*70
$GPGGA,084126.598,4307.137,N,01221.302,E,1,12,1.0,0.0,M,0.0,M,,*67
$GPGSA,A,3,01,02,03,04,05,06,07,08,09,10,11,12,1.0,1.0,1.0*30
$GPRMC,084126.598,A,4307.137,N,01221.302,E,001.0,157.1,231021,000.0,W*73
$GPGGA,084127.598,4307.137,N,01221.302,E,1,12,1.0,0.0,M,0.0,M,,*66
$GPGSA,A,3,01,02,03,04,05,06,07,08,09,10,11,12,1.0,1.0,1.0*30
$GPRMC,084127.598,A,4307.137,N,01221.302,E,001.0,157.1,231021,000.0,W*72
$GPGGA,084128.598,4307.136,N,01221.302,E,1,12,1.0,0.0,M,0.0,M,,*68
$GPGSA,A,3,01,02,03,04,05,06,07,08,09,10,11,12,1.0,1.0,1.0*30
$GPRMC,084128.598,A,4307.136,N,01221.302,E,001.0,157.1,231021,000.0,W*7C
$GPGGA,084129.598,4307.136,N,01221.302,E,1,12,1.0,0.0,M,0.0,M,,*69
$GPGSA,A,3,01,02,03,04,05,06,07,08,09,10,11,12,1.0,1.0,1.0*30
$GPRMC,084129.598,A,4307.136,N,01221.302,E,001.0,157.1,231021,000.0,W*7D
$GPGGA,084130.598,4307.136,N,01221.303,E,1,12,1.0,0.0,M,0.0,M,,*60
$GPGSA,A,3,01,02,03,04,05,06,07,08,09,10,11,12,1.0,1.0,1.0*30
$GPRMC,084130.598,A,4307.136,N,01221.303,E,001.0,157.1,231021,000.0,W*74
$GPGGA,084131.598,4307.135,N,01221.303,E,1,12,1.0,0.0,M,0.0,M,,*62
$GPGSA,A,3,01,02,03,04,05,06,07,08,09,10,11,12,1.0,1.0,1.0*30
$GPRMC,084131.598,A,4307.135,N,01221.303,E,001.0,157.1,231021,000.0,W*76
$GPGGA,084132.598,4307.135,N,01221.303,E,1,12,1.0,0.0,M,0.0,M,,*61
$GPGSA,A,3,01,02,03,04,05,06,07,08,09,10,11,12,1.0,1.0,1.0*30
$GPRMC,084132.598,A,4307.135,N,01221.303,E,001.0,157.1,231021,000.0,W*75
$GPGGA,084133.598,4307.135,N,01221.303,E,1,12,1.0,0.0,M,0.0,M,,*60
$GPGSA,A,3,01,02,03,04,05,06,07,08,09,10,11,12,1.0,1.0,1.0*30
$GPRMC,084133.598,A,4307.135,N,01221.303,E,001.0,157.1,231021,000.0,W*74
$GPGGA,084134.598,4307.135,N,01221.303,E,1,12,1.0,0.0,M,0.0,M,,*67
$GPGSA,A,3,01,02,03,04,05,06,07,08,09,10,11,12,1.0,1.0,1.0*30
$GPRMC,084134.598,A,4307.135,N,01221.303,E,001.0,157.1,231021,000.0,W*73
$GPGGA,084135.598,4307.134,N,01221.303,E,1,12,1.0,0.0,M,0.0,M,,*67
$GPGSA,A,3,01,02,03,04,05,06,07,08,09,10,11,12,1.0,1.0,1.0*30
$GPRMC,084135.598,A,4307.134,N,01221.303,E,001.0,157.1,231021,000.0,W*73
$GPGGA,084136.598,4307.134,N,01221.303,E,1,12,1.0,0.0,M,0.0,M,,*64
$GPGSA,A,3,01,02,03,04,05,06,07,08,09,10,11,12,1.0,1.0,1.0*30
$GPRMC,084136.598,A,4307.134,N,01221.303,E,001.0,157.1,231021,000.0,W*70
$GPGGA,084137.598,4307.134,N,01221.303,E,1,12,1.0,0.0,M,0.0,M,,*65
$GPGSA,A,3,01,02,03,04,05,06,07,08,09,10,11,12,1.0,1.0,1.0*30
$GPRMC,084137.598,A,4307.134,N,01221.303,E,001.0,157.1,231021,000.0,W*71
$GPGGA,084138.598,4307.134,N,01221.303,E,1,12,1.0,0.0,M,0.0,M,,*6A
$GPGSA,A,3,01,02,03,04,05,06,07,08,09,10,11,12,1.0,1.0,1.0*30
$GPRMC,084138.598,A,4307.134,N,01221.303,E,001.0,145.8,231021,000.0,W*74
$GPGGA,084139.598,4307.133,N,01221.304,E,1,12,1.0,0.0,M,0.0,M,,*6B
$GPGSA,A,3,01,02,03,04,05,06,07,08,09,10,11,12,1.0,1.0,1.0*30
$GPRMC,084139.598,A,4307.133,N,01221.304,E,001.0,145.8,231021,000.0,W*75
$GPGGA,084140.598,4307.133,N,01221.304,E,1,12,1.0,0.0,M,0.0,M,,*65
$GPGSA,A,3,01,02,03,04,05,06,07,08,09,10,11,12,1.0,1.0,1.0*30
$GPRMC,084140.598,A,4307.133,N,01221.304,E,001.0,145.8,231021,000.0,W*7B
$GPGGA,084141.598,4307.133,N,01221.304,E,1,12,1.0,0.0,M,0.0,M,,*64
$GPGSA,A,3,01,02,03,04,05,06,07,08,09,10,11,12,1.0,1.0,1.0*30
$GPRMC,084141.598,A,4307.133,N,01221.304,E,001.0,145.8,231021,000.0,W*7A
$GPGGA,084142.598,4307.133,N,01221.304,E,1,12,1.0,0.0,M,0.0,M,,*67
$GPGSA,A,3,01,02,03,04,05,06,07,08,09,10,11,12,1.0,1.0,1.0*30
$GPRMC,084142.598,A,4307.133,N,01221.304,E,001.0,145.8,231021,000.0,W*79
$GPGGA,084143.598,4307.132,N,01221.304,E,1,12,1.0,0.0,M,0.0,M,,*67
$GPGSA,A,3,01,02,03,04,05,06,07,08,09,10,11,12,1.0,1.0,1.0*30
$GPRMC,084143.598,A,4307.132,N,01221.304,E,001.0,145.8,231021,000.0,W*79
$GPGGA,084144.598,4307.132,N,01221.304,E,1,12,1.0,0.0,M,0.0,M,,*60
$GPGSA,A,3,01,02,03,04,05,06,07,08,09,10,11,12,1.0,1.0,1.0*30
$GPRMC,084144.598,A,4307.132,N,01221.304,E,001.0,145.8,231021,000.0,W*7E
$GPGGA,084145.598,4307.132,N,01221.305,E,1,12,1.0,0.0,M,0.0,M,,*60
$GPGSA,A,3,01,02,03,04,05,06,07,08,09,10,11,12,1.0,1.0,1.0*30
$GPRMC,084145.598,A,4307.132,N,01221.305,E,001.0,145.8,231021,000.0,W*7E
$GPGGA,084146.598,4307.132,N,01221.305,E,1,12,1.0,0.0,M,0.0,M,,*63
$GPGSA,A,3,01,02,03,04,05,06,07,08,09,10,11,12,1.0,1.0,1.0*30
$GPRMC,084146.598,A,4307.132,N,01221.305,E,001.0,145.8,231021,000.0,W*7D
$GPGGA,084147.598,4307.132,N,01221.305,E,1,12,1.0,0.0,M,0.0,M,,*62
$GPGSA,A,3,01,02,03,04,05,06,07,08,09,10,11,12,1.0,1.0,1.0*30
$GPRMC,084147.598,A,4307.132,N,01221.305,E,001.0,145.8,231021,000.0,W*7C
$GPGGA,084148.598,4307.131,N,01221.305,E,1,12,1.0,0.0,M,0.0,M,,*6E
$GPGSA,A,3,01,02,03,04,05,06,07,08,09,10,11,12,1.0,1.0,1.0*30
$GPRMC,084148.598,A,4307.131,N,01221.305,E,001.0,145.8,231021,000.0,W*70
$GPGGA,084149.598,4307.131,N,01221.305,E,1,12,1.0,0.0,M,0.0,M,,*6F
$GPGSA,A,3,01,02,03,04,05,06,07,08,09,10,11,12,1.0,1.0,1.0*30
$GPRMC,084149.598,A,4307.131,N,01221.305,E,001.0,145.8,231021,000.0,W*71
$GPGGA,084150.598,4307.131,N,01221.305,E,1,12,1.0,0.0,M,0.0,M,,*67
$GPGSA,A,3,01,02,03,04,05,06,07,08,09,10,11,12,1.0,1.0,1.0*30
$GPRMC,084150.598,A,4307.131,N,01221.305,E,001.0,145.8,231021,000.0,W*79
$GPGGA,084151.598,4307.131,N,01221.306,E,1,12,1.0,0.0,M,0.0,M,,*65
$GPGSA,A,3,01,02,03,04,05,06,07,08,09,10,11,12,1.0,1.0,1.0*30
$GPRMC,084151.598,A,4307.131,N,01221.306,E,001.0,145.8,231021,000.0,W*7B
$GPGGA,084152.598,4307.130,N,01221.306,E,1,12,1.0,0.0,M,0.0,M,,*67
$GPGSA,A,3,01,02,03,04,05,06,07,08,09,10,11,12,1.0,1.0,1.0*30
$GPRMC,084152.598,A,4307.130,N,01221.306,E,001.0,145.8,231021,000.0,W*79
$GPGGA,084153.598,4307.130,N,01221.306,E,1,12,1.0,0.0,M,0.0,M,,*66
$GPGSA,A,3,01,02,03,04,05,06,07,08,09,10,11,12,1.0,1.0,1.0*30
$GPRMC,084153.598,A,4307.130,N,01221.306,E,001.0,145.8,231021,000.0,W*78
$GPGGA,084154.598,4307.130,N,01221.306,E,1,12,1.0,0.0,M,0.0,M,,*61
$GPGSA,A,3,01,02,03,04,05,06,07,08,09,10,11,12,1.0,1.0,1.0*30
$GPRMC,084154.598,A,4307.130,N,01221.306,E,001.0,145.8,231021,000.0,W*7F
$GPGGA,084155.598,4307.130,N,01221.306,E,1,12,1.0,0.0,M,0.0,M,,*60
$GPGSA,A,3,01,02,03,04,05,06,07,08,09,10,11,12,1.0,1.0,1.0*30
$GPRMC,084155.598,A,4307.130,N,01221.306,E,001.0,145.8,231021,000.0,W*7E
$GPGGA,084156.598,4307.129,N,01221.306,E,1,12,1.0,0.0,M,0.0,M,,*6B
$GPGSA,A,3,01,02,03,04,05,06,07,08,09,10,11,12,1.0,1.0,1.0*30
$GPRMC,084156.598,A,4307.129,N,01221.306,E,001.0,145.8,231021,000.0,W*75
$GPGGA,084157.598,4307.129,N,01221.307,E,1,12,1.0,0.0,M,0.0,M,,*6B
$GPGSA,A,3,01,02,03,04,05,06,07,08,09,10,11,12,1.0,1.0,1.0*30
$GPRMC,084157.598,A,4307.129,N,01221.307,E,001.0,139.1,231021,000.0,W*77
$GPGGA,084158.598,4307.129,N,01221.307,E,1,12,1.0,0.0,M,0.0,M,,*64
$GPGSA,A,3,01,02,03,04,05,06,07,08,09,10,11,12,1.0,1.0,1.0*30
$GPRMC,084158.598,A,4307.129,N,01221.307,E,001.0,139.1,231021,000.0,W*78
$GPGGA,084159.598,4307.129,N,01221.307,E,1,12,1.0,0.0,M,0.0,M,,*65
$GPGSA,A,3,01,02,03,04,05,06,07,08,09,10,11,12,1.0,1.0,1.0*30
$GPRMC,084159.598,A,4307.129,N,01221.307,E,001.0,139.1,231021,000.0,W*79
$GPGGA,084200.598,4307.128,N,01221.307,E,1,12,1.0,0.0,M,0.0,M,,*6B
$GPGSA,A,3,01,02,03,04,05,06,07,08,09,10,11,12,1.0,1.0,1.0*30
$GPRMC,084200.598,A,4307.128,N,01221.307,E,001.0,139.1,231021,000.0,W*77
